{
 "generated_at": "2026-07-18T21:02:40+00:00",
 "source": "https://raw.githubusercontent.com/willytop8/Live-Environment-Streams/main/streams.geojson",
 "count": 2959,
 "by_type": {
  "youtube": 420,
  "hls": 2539
 },
 "webcams": [
  {
   "id": "e515fc89da51",
   "name": "AR - Buenos Aires - Ostende - La Rambla (Ostende)",
   "country": "AR",
   "lat": -37.138,
   "lon": -56.865,
   "environment": "coastal",
   "scene": "beach",
   "type": "hls",
   "src": "https://wowza.telpin.com.ar:1935/camara-rambla/smil:camara-rambla.smil/playlist.m3u8",
   "verified": true,
   "last_ok": "2026-07-18T21:02:40+00:00"
  },
  {
   "id": "520d99d13082",
   "name": "AR - Buenos Aires - Pinamar - Bunge y Libertador (Pinamar)",
   "country": "AR",
   "lat": -37.1081,
   "lon": -56.8598,
   "environment": "traffic",
   "scene": "traffic",
   "type": "hls",
   "src": "https://wowza.telpin.com.ar:1935/camara-fuente/smil:camara-fuente.smil/playlist.m3u8",
   "verified": true,
   "last_ok": "2026-07-18T21:02:40+00:00"
  },
  {
   "id": "482bd321db4e",
   "name": "AR - Buenos Aires - Pinamar - Bunge y el Mar - Domo (Pinamar)",
   "country": "AR",
   "lat": -37.1083,
   "lon": -56.8472,
   "environment": "coastal",
   "scene": "beach",
   "type": "hls",
   "src": "https://wowza.telpin.com.ar:1935/camara-bypdomo/smil:camara-bypdomo.smil/playlist.m3u8",
   "verified": true,
   "last_ok": "2026-07-18T21:02:40+00:00"
  },
  {
   "id": "d79b519e7115",
   "name": "AR - Buenos Aires - Pinamar - Muelle (Pinamar Pier)",
   "country": "AR",
   "lat": -37.11,
   "lon": -56.8455,
   "environment": "coastal",
   "scene": "beach",
   "type": "hls",
   "src": "https://wowza.telpin.com.ar:1935/camara-muelle/muelle.stream_720p/playlist.m3u8",
   "verified": true,
   "last_ok": "2026-07-18T21:02:40+00:00"
  },
  {
   "id": "f5e11130133d",
   "name": "AR - Buenos Aires - Pinamar - Playas del Norte - Botavara (Pinamar)",
   "country": "AR",
   "lat": -37.095,
   "lon": -56.848,
   "environment": "coastal",
   "scene": "beach",
   "type": "hls",
   "src": "https://wowza.telpin.com.ar:1935/camara-botavara/smil:camara-botavara.smil/playlist.m3u8",
   "verified": true,
   "last_ok": "2026-07-18T21:02:40+00:00"
  },
  {
   "id": "66f55e9fa2f1",
   "name": "Argentina Coast Live - Villa Gesell, Pinamar and Patagonia",
   "country": "AR",
   "lat": -37.33888,
   "lon": -57.03914,
   "environment": "coastal",
   "scene": "beach",
   "type": "youtube",
   "video_id": "2u4GnVNtlsY",
   "embed": "https://www.youtube.com/embed/2u4GnVNtlsY?autoplay=1&mute=1&playsinline=1",
   "verified": true,
   "last_ok": "2026-07-18T21:02:40+00:00"
  },
  {
   "id": "c4bf763d95a4",
   "name": "Holzgau",
   "country": "AT",
   "lat": 47.2602,
   "lon": 10.34403,
   "environment": "urban",
   "scene": "city",
   "type": "hls",
   "src": "https://h057.video-stream-hosting.de/tourismusverbandlechtal-rtplive/_definst_/mp4:camera3.stream/chunklist_w1581120379.m3u8",
   "verified": true,
   "last_ok": "2026-07-18T21:02:40+00:00"
  },
  {
   "id": "3f4640348bb7",
   "name": "Weissenbach am Lech",
   "country": "AT",
   "lat": 47.44448,
   "lon": 10.64314,
   "environment": "nature",
   "scene": "nature",
   "type": "youtube",
   "video_id": "gs8BrBIZylM",
   "embed": "https://www.youtube.com/embed/gs8BrBIZylM?autoplay=1&mute=1&playsinline=1",
   "verified": true,
   "last_ok": "2026-07-18T21:02:40+00:00"
  },
  {
   "id": "5d498ae11e43",
   "name": "AU - Bass Coast Shire - Burrow Cam",
   "country": "AU",
   "lat": -38.4557,
   "lon": 145.23878,
   "environment": "traffic",
   "scene": "traffic",
   "type": "youtube",
   "video_id": "yTxngt2eVDM",
   "embed": "https://www.youtube.com/embed/yTxngt2eVDM?autoplay=1&mute=1&playsinline=1",
   "verified": true,
   "last_ok": "2026-07-18T21:02:40+00:00"
  },
  {
   "id": "363942de5f26",
   "name": "AU - Victoria - 39 Summit Rd - Bourke Street Ski Run Action",
   "country": "AU",
   "lat": -37.1467,
   "lon": 146.44497,
   "environment": "traffic",
   "scene": "traffic",
   "type": "youtube",
   "video_id": "0OtVlfDj2w8",
   "embed": "https://www.youtube.com/embed/0OtVlfDj2w8?autoplay=1&mute=1&playsinline=1",
   "verified": true,
   "last_ok": "2026-07-18T21:02:40+00:00"
  },
  {
   "id": "574be4536fcb",
   "name": "AU - Victoria - Melbourne - Werribee Lions in Open Savanna Habitat",
   "country": "AU",
   "lat": -37.92261,
   "lon": 144.665,
   "environment": "traffic",
   "scene": "traffic",
   "type": "youtube",
   "video_id": "gTz_7tKUfYM",
   "embed": "https://www.youtube.com/embed/gTz_7tKUfYM?autoplay=1&mute=1&playsinline=1",
   "verified": true,
   "last_ok": "2026-07-18T21:02:40+00:00"
  },
  {
   "id": "d798592ef887",
   "name": "AU - Victoria - Surf Coast Shire - Anglesea Golf Course Seaside Panorama",
   "country": "AU",
   "lat": -38.40622,
   "lon": 144.16871,
   "environment": "traffic",
   "scene": "traffic",
   "type": "youtube",
   "video_id": "DbLMSFvB2Og",
   "embed": "https://www.youtube.com/embed/DbLMSFvB2Og?autoplay=1&mute=1&playsinline=1",
   "verified": true,
   "last_ok": "2026-07-18T21:02:40+00:00"
  },
  {
   "id": "5eefda105b90",
   "name": "Ben Lomond Alpine Resort — Tasmania, Australia",
   "country": "AU",
   "lat": -41.546,
   "lon": 147.658,
   "environment": "mountain",
   "scene": "mountain",
   "type": "youtube",
   "video_id": "dK8GOSSifVc",
   "embed": "https://www.youtube.com/embed/dK8GOSSifVc?autoplay=1&mute=1&playsinline=1",
   "verified": true,
   "last_ok": "2026-07-18T21:02:40+00:00"
  },
  {
   "id": "d19d92737172",
   "name": "Burleigh Beach Webcam - Australia 🎦",
   "country": "AU",
   "lat": -25.0,
   "lon": 135.0,
   "environment": "coastal",
   "scene": "beach",
   "type": "hls",
   "src": "https://d1nm4r8e5x1rwd.cloudfront.net/cw/burleighheadscamera.stream/playlist.m3u8",
   "verified": true,
   "last_ok": "2026-07-18T21:02:40+00:00"
  },
  {
   "id": "4bcd0f00626e",
   "name": "Currumbin Beach Webcam - Australia 🎦",
   "country": "AU",
   "lat": -28.13649,
   "lon": 153.48158,
   "environment": "coastal",
   "scene": "beach",
   "type": "hls",
   "src": "https://d1nm4r8e5x1rwd.cloudfront.net/cw/currumbincamera.stream/playlist.m3u8",
   "verified": true,
   "last_ok": "2026-07-18T21:02:40+00:00"
  },
  {
   "id": "d54e9916e4e6",
   "name": "Narrowneck - Gold Coast beach Webcam - Australia 🎦",
   "country": "AU",
   "lat": -25.0,
   "lon": 135.0,
   "environment": "coastal",
   "scene": "beach",
   "type": "hls",
   "src": "https://d1nm4r8e5x1rwd.cloudfront.net/cw/narrowneckhighcamera.stream/playlist.m3u8",
   "verified": true,
   "last_ok": "2026-07-18T21:02:40+00:00"
  },
  {
   "id": "cb2f75e4353e",
   "name": "Surfers Paradise Beach Webcam - Australia 🎦",
   "country": "AU",
   "lat": -28.00274,
   "lon": 153.43,
   "environment": "coastal",
   "scene": "beach",
   "type": "hls",
   "src": "https://d1nm4r8e5x1rwd.cloudfront.net/cw/surfersparadisecamera.stream/playlist.m3u8",
   "verified": true,
   "last_ok": "2026-07-18T21:02:40+00:00"
  },
  {
   "id": "8887f15a4f5e",
   "name": "Eagle Beach Aruba Costa Linda",
   "country": "AW",
   "lat": 12.5493,
   "lon": -70.056,
   "environment": "coastal",
   "scene": "beach",
   "type": "youtube",
   "video_id": "_ZXMjk5K0_s",
   "embed": "https://www.youtube.com/embed/_ZXMjk5K0_s?autoplay=1&mute=1&playsinline=1",
   "verified": true,
   "last_ok": "2026-07-18T21:02:40+00:00"
  },
  {
   "id": "85450998ccc3",
   "name": "Bridgetown Hastings Beach Barbados",
   "country": "BB",
   "lat": 13.0746,
   "lon": -59.5969,
   "environment": "coastal",
   "scene": "beach",
   "type": "hls",
   "src": "https://stream.iwcpinc.com/IWCP_NCC/_definst_/NCC_Hastings_2.stream/playlist.m3u8",
   "verified": true,
   "last_ok": "2026-07-18T21:02:40+00:00"
  },
  {
   "id": "84c9aa7f4896",
   "name": "Paynes Bay - St James Barbados",
   "country": "BB",
   "lat": 13.15814,
   "lon": -59.63574,
   "environment": "coastal",
   "scene": "beach",
   "type": "hls",
   "src": "https://stream.iwcpinc.com/IWCP_BEACH/_definst_/Paynes_Bay_1_Beachview.stream/playlist.m3u8",
   "verified": true,
   "last_ok": "2026-07-18T21:02:40+00:00"
  },
  {
   "id": "dd4062901c6d",
   "name": "Blankenberge Beach Webcam - Belgium 🎦",
   "country": "BE",
   "lat": 51.31306,
   "lon": 3.13227,
   "environment": "coastal",
   "scene": "beach",
   "type": "youtube",
   "video_id": "-3SMlcFv7II",
   "embed": "https://www.youtube.com/embed/-3SMlcFv7II?autoplay=1&mute=1&playsinline=1",
   "verified": true,
   "last_ok": "2026-07-18T21:02:40+00:00"
  },
  {
   "id": "45da2b95d720",
   "name": "Col de la Tourmente Saint Barth Scenic View",
   "country": "BL",
   "lat": 17.903,
   "lon": -62.845,
   "environment": "urban",
   "scene": "city",
   "type": "youtube",
   "video_id": "15pVqwQb7A0",
   "embed": "https://www.youtube.com/embed/15pVqwQb7A0?autoplay=1&mute=1&playsinline=1",
   "verified": true,
   "last_ok": "2026-07-18T21:02:40+00:00"
  },
  {
   "id": "ef2dd9bded8c",
   "name": "Kralendijk Sorobon Beach",
   "country": "BQ",
   "lat": 12.0919,
   "lon": -68.23558,
   "environment": "coastal",
   "scene": "beach",
   "type": "youtube",
   "video_id": "EcumU_n6fTY",
   "embed": "https://www.youtube.com/embed/EcumU_n6fTY?autoplay=1&mute=1&playsinline=1",
   "verified": true,
   "last_ok": "2026-07-18T21:02:40+00:00"
  },
  {
   "id": "1f8df321de1a",
   "name": "Avenida Atlantica Webcam - Brazil 🎦",
   "country": "BR",
   "lat": -10.0,
   "lon": -55.0,
   "environment": "coastal",
   "scene": "beach",
   "type": "youtube",
   "video_id": "6DCKvZedIiM",
   "embed": "https://www.youtube.com/embed/6DCKvZedIiM?autoplay=1&mute=1&playsinline=1",
   "verified": true,
   "last_ok": "2026-07-18T21:02:40+00:00"
  },
  {
   "id": "efa024b23c6d",
   "name": "BR - SP - Amparo - SP360 km 110 - Constancio Cintra, Engenheiro",
   "country": "BR",
   "lat": -22.84104,
   "lon": -46.77371,
   "environment": "traffic",
   "scene": "traffic",
   "type": "hls",
   "src": "https://34.104.32.249.nip.io/SP360-KM110/stream.m3u8",
   "verified": true,
   "last_ok": "2026-07-18T21:02:40+00:00"
  },
  {
   "id": "53ec71ce9166",
   "name": "BR - SP - Bertioga - SP055 km 193 - Doutor Manoel Hyppolito Rego",
   "country": "BR",
   "lat": -23.75781,
   "lon": -45.86433,
   "environment": "traffic",
   "scene": "traffic",
   "type": "hls",
   "src": "https://34.104.32.249.nip.io/SP055-KM193/stream.m3u8",
   "verified": true,
   "last_ok": "2026-07-18T21:02:40+00:00"
  },
  {
   "id": "ca611eabe361",
   "name": "BR - SP - Bertioga - SP055 km 211 - Doutor Manoel Hyppolito Rego",
   "country": "BR",
   "lat": -23.78714,
   "lon": -46.02699,
   "environment": "traffic",
   "scene": "traffic",
   "type": "hls",
   "src": "https://34.104.32.249.nip.io/SP055-KM211A/stream.m3u8",
   "verified": true,
   "last_ok": "2026-07-18T21:02:40+00:00"
  },
  {
   "id": "dbb74c946fa4",
   "name": "BR - SP - Bertioga - SP055 km 211 - Doutor Manoel Hyppolito Rego",
   "country": "BR",
   "lat": -23.78714,
   "lon": -46.02699,
   "environment": "traffic",
   "scene": "traffic",
   "type": "hls",
   "src": "https://34.104.32.249.nip.io/SP055-KM211B/stream.m3u8",
   "verified": true,
   "last_ok": "2026-07-18T21:02:40+00:00"
  },
  {
   "id": "ff01f14f6cda",
   "name": "BR - SP - Bragança Paulista - SP008 km 95 - Pedro Astenori Mariagliani (Capitão)",
   "country": "BR",
   "lat": -22.92558,
   "lon": -46.55291,
   "environment": "traffic",
   "scene": "traffic",
   "type": "hls",
   "src": "https://34.104.32.249.nip.io/SP008-KM095/stream.m3u8",
   "verified": true,
   "last_ok": "2026-07-18T21:02:40+00:00"
  },
  {
   "id": "8b1c474c2009",
   "name": "BR - SP - Campos do Jordão - SP123 km 46 - Floriano Rodrigues Pinheiro",
   "country": "BR",
   "lat": -22.75612,
   "lon": -45.61024,
   "environment": "traffic",
   "scene": "traffic",
   "type": "hls",
   "src": "https://34.104.32.249.nip.io/SP123-KM046/stream.m3u8",
   "verified": true,
   "last_ok": "2026-07-18T21:02:40+00:00"
  },
  {
   "id": "ef3c2f211e49",
   "name": "BR - SP - Caraguatatuba - SP055 km 110,8 - Doutor Manoel Hyppolito Rego",
   "country": "BR",
   "lat": -23.69799,
   "lon": -45.43953,
   "environment": "traffic",
   "scene": "traffic",
   "type": "hls",
   "src": "https://34.104.32.249.nip.io/SP055-KM110A/stream.m3u8",
   "verified": true,
   "last_ok": "2026-07-18T21:02:40+00:00"
  },
  {
   "id": "59f47f2e46c7",
   "name": "BR - SP - Caraguatatuba - SP055 km 110,8 - Doutor Manoel Hyppolito Rego",
   "country": "BR",
   "lat": -23.69799,
   "lon": -45.43953,
   "environment": "traffic",
   "scene": "traffic",
   "type": "hls",
   "src": "https://34.104.32.249.nip.io/SP055-KM110B/stream.m3u8",
   "verified": true,
   "last_ok": "2026-07-18T21:02:40+00:00"
  },
  {
   "id": "057da43d35ed",
   "name": "BR - SP - Caraguatatuba - SP055 km 83,5 - Doutor Manoel Hyppolito Rego",
   "country": "BR",
   "lat": -23.56631,
   "lon": -45.27933,
   "environment": "traffic",
   "scene": "traffic",
   "type": "hls",
   "src": "https://34.104.32.249.nip.io/SP055-KM083/stream.m3u8",
   "verified": true,
   "last_ok": "2026-07-18T21:02:40+00:00"
  },
  {
   "id": "82e0792e5f10",
   "name": "BR - SP - Caraguatatuba - SP055 km 92,5 - Doutor Manoel Hyppolito Rego",
   "country": "BR",
   "lat": -23.60139,
   "lon": -45.34492,
   "environment": "traffic",
   "scene": "traffic",
   "type": "hls",
   "src": "https://34.104.32.249.nip.io/SP055-KM092/stream.m3u8",
   "verified": true,
   "last_ok": "2026-07-18T21:02:40+00:00"
  },
  {
   "id": "cd6ec45a2b3e",
   "name": "BR - SP - Itatiba - SP063 km 28 - Alkindar Monteiro Junqueira",
   "country": "BR",
   "lat": -22.97714,
   "lon": -46.77103,
   "environment": "traffic",
   "scene": "traffic",
   "type": "hls",
   "src": "https://34.104.32.249.nip.io/SP063-KM028/stream.m3u8",
   "verified": true,
   "last_ok": "2026-07-18T21:02:40+00:00"
  },
  {
   "id": "2da08279b9c0",
   "name": "BR - SP - Jarinu - SP354 km 75,4 - Edgard Máximo Zambotto",
   "country": "BR",
   "lat": -23.07926,
   "lon": -46.70074,
   "environment": "traffic",
   "scene": "traffic",
   "type": "hls",
   "src": "https://34.104.32.249.nip.io/SP354-KM075/stream.m3u8",
   "verified": true,
   "last_ok": "2026-07-18T21:02:40+00:00"
  },
  {
   "id": "c831927af131",
   "name": "BR - SP - Pindamonhangaba - SP123 km 26,5 - Floriano Rodrigues Pinheiro",
   "country": "BR",
   "lat": -22.86396,
   "lon": -45.60252,
   "environment": "traffic",
   "scene": "traffic",
   "type": "hls",
   "src": "https://34.104.32.249.nip.io/SP123-KM026B/stream.m3u8",
   "verified": true,
   "last_ok": "2026-07-18T21:02:40+00:00"
  },
  {
   "id": "2ba45346da91",
   "name": "BR - SP - Pindamonhangaba - SP123 km 31 - Floriano Rodrigues Pinheiro",
   "country": "BR",
   "lat": -22.84614,
   "lon": -45.61556,
   "environment": "traffic",
   "scene": "traffic",
   "type": "hls",
   "src": "https://34.104.32.249.nip.io/SP123-KM031A/stream.m3u8",
   "verified": true,
   "last_ok": "2026-07-18T21:02:40+00:00"
  },
  {
   "id": "e1ac8eb16984",
   "name": "BR - SP - Pindamonhangaba - SP123 km 31 - Floriano Rodrigues Pinheiro",
   "country": "BR",
   "lat": -22.84614,
   "lon": -45.61556,
   "environment": "traffic",
   "scene": "traffic",
   "type": "hls",
   "src": "https://34.104.32.249.nip.io/SP123-KM031B/stream.m3u8",
   "verified": true,
   "last_ok": "2026-07-18T21:02:40+00:00"
  },
  {
   "id": "9067ad90047f",
   "name": "BR - SP - Piracicaba - SP304 km 157 - Luiz de Queiroz",
   "country": "BR",
   "lat": -22.72241,
   "lon": -47.59989,
   "environment": "traffic",
   "scene": "traffic",
   "type": "hls",
   "src": "https://34.104.32.249.nip.io/SP304-KM157/stream.m3u8",
   "verified": true,
   "last_ok": "2026-07-18T21:02:40+00:00"
  },
  {
   "id": "d9952836eb8d",
   "name": "BR - SP - Praça de Pedágio de Itupeva - SP324 km 81 - Miguel Melhado Campos",
   "country": "BR",
   "lat": -23.05663,
   "lon": -47.0413,
   "environment": "traffic",
   "scene": "traffic",
   "type": "hls",
   "src": "https://34.104.32.249.nip.io/SP324-KM081/stream.m3u8",
   "verified": true,
   "last_ok": "2026-07-18T21:02:40+00:00"
  },
  {
   "id": "aab364290cc6",
   "name": "BR - SP - Santo Antônio do Pinhal - SP046 km 167 - Oswaldo Barbosa Guisadi",
   "country": "BR",
   "lat": -22.83048,
   "lon": -45.62527,
   "environment": "traffic",
   "scene": "traffic",
   "type": "hls",
   "src": "https://34.104.32.249.nip.io/SP046-KM167/stream.m3u8",
   "verified": true,
   "last_ok": "2026-07-18T21:02:40+00:00"
  },
  {
   "id": "15a74f386cf1",
   "name": "BR - SP - Santo Antônio do Pinhal - SP123 km 33 - Floriano Rodrigues Pinheiro",
   "country": "BR",
   "lat": -22.83032,
   "lon": -45.62487,
   "environment": "traffic",
   "scene": "traffic",
   "type": "hls",
   "src": "https://34.104.32.249.nip.io/SP123-KM033A/stream.m3u8",
   "verified": true,
   "last_ok": "2026-07-18T21:02:40+00:00"
  },
  {
   "id": "f2e3555665dd",
   "name": "BR - SP - São Luís do Paraitinga - SP125 km 42 - Oswaldo Cruz",
   "country": "BR",
   "lat": -23.22821,
   "lon": -45.31395,
   "environment": "traffic",
   "scene": "traffic",
   "type": "hls",
   "src": "https://34.104.32.249.nip.io/SP125-KM042/stream.m3u8",
   "verified": true,
   "last_ok": "2026-07-18T21:02:40+00:00"
  },
  {
   "id": "5f80c913c939",
   "name": "BR - SP - São Luís do Paraitinga - SP125 km 67 - Oswaldo Cruz",
   "country": "BR",
   "lat": -23.35981,
   "lon": -45.20268,
   "environment": "traffic",
   "scene": "traffic",
   "type": "hls",
   "src": "https://34.104.32.249.nip.io/SP125-KM067/stream.m3u8",
   "verified": true,
   "last_ok": "2026-07-18T21:02:40+00:00"
  },
  {
   "id": "ac225bed293e",
   "name": "BR - SP - São Sebastião - SP055 km 136 - Doutor Manoel Hyppolito Rego",
   "country": "BR",
   "lat": -23.81863,
   "lon": -45.45649,
   "environment": "traffic",
   "scene": "traffic",
   "type": "hls",
   "src": "https://34.104.32.249.nip.io/SP055-KM136/stream.m3u8",
   "verified": true,
   "last_ok": "2026-07-18T21:02:40+00:00"
  },
  {
   "id": "301cb1858cc6",
   "name": "BR - SP - São Sebastião - SP055 km 168 - Doutor Manoel Hyppolito Rego",
   "country": "BR",
   "lat": -23.76329,
   "lon": -45.65583,
   "environment": "traffic",
   "scene": "traffic",
   "type": "hls",
   "src": "https://34.104.32.249.nip.io/SP055-KM168/stream.m3u8",
   "verified": true,
   "last_ok": "2026-07-18T21:02:40+00:00"
  },
  {
   "id": "85be9805a8eb",
   "name": "BR - SP - Taubaté - SP123 km 8 - Floriano Rodrigues Pinheiro",
   "country": "BR",
   "lat": -22.99179,
   "lon": -45.64512,
   "environment": "traffic",
   "scene": "traffic",
   "type": "hls",
   "src": "https://34.104.32.249.nip.io/SP123-KM008/stream.m3u8",
   "verified": true,
   "last_ok": "2026-07-18T21:02:40+00:00"
  },
  {
   "id": "d85d598cfe25",
   "name": "BR - SP - Taubaté - SP125 km 21 - Oswaldo Cruz",
   "country": "BR",
   "lat": -23.19124,
   "lon": -45.4589,
   "environment": "traffic",
   "scene": "traffic",
   "type": "hls",
   "src": "https://34.104.32.249.nip.io/SP125-KM022/stream.m3u8",
   "verified": true,
   "last_ok": "2026-07-18T21:02:40+00:00"
  },
  {
   "id": "da4334aedc90",
   "name": "BR - SP - Ubatuba - SP055 km 55 - Doutor Manoel Hyppolito Rego",
   "country": "BR",
   "lat": -23.47217,
   "lon": -45.06703,
   "environment": "traffic",
   "scene": "traffic",
   "type": "hls",
   "src": "https://34.104.32.249.nip.io/SP055-KM055/stream.m3u8",
   "verified": true,
   "last_ok": "2026-07-18T21:02:40+00:00"
  },
  {
   "id": "c30a69ce493c",
   "name": "BR - SP - Ubatuba - SP055 km 73 - Doutor Manoel Hyppolito Rego",
   "country": "BR",
   "lat": -23.51826,
   "lon": -45.20068,
   "environment": "traffic",
   "scene": "traffic",
   "type": "hls",
   "src": "https://34.104.32.249.nip.io/SP055-KM073/stream.m3u8",
   "verified": true,
   "last_ok": "2026-07-18T21:02:40+00:00"
  },
  {
   "id": "1d793642a31a",
   "name": "BR - SP - Ubatuba - SP125 km 81 - Oswaldo Cruz",
   "country": "BR",
   "lat": -23.36634,
   "lon": -45.12547,
   "environment": "traffic",
   "scene": "traffic",
   "type": "hls",
   "src": "https://34.104.32.249.nip.io/SP125-KM081/stream.m3u8",
   "verified": true,
   "last_ok": "2026-07-18T21:02:40+00:00"
  },
  {
   "id": "b1fd28c96fdc",
   "name": "BR - SP - Ubatuba - SP125 km 88 - Oswaldo Cruz",
   "country": "BR",
   "lat": -23.40703,
   "lon": -45.1173,
   "environment": "traffic",
   "scene": "traffic",
   "type": "hls",
   "src": "https://34.104.32.249.nip.io/SP125-KM088A/stream.m3u8",
   "verified": true,
   "last_ok": "2026-07-18T21:02:40+00:00"
  },
  {
   "id": "a9d93db53138",
   "name": "BR - SP - Ubatuba - SP125 km 93 - Oswaldo Cruz",
   "country": "BR",
   "lat": -23.4374,
   "lon": -45.09635,
   "environment": "traffic",
   "scene": "traffic",
   "type": "hls",
   "src": "https://34.104.32.249.nip.io/SP125-KM093B/stream.m3u8",
   "verified": true,
   "last_ok": "2026-07-18T21:02:40+00:00"
  },
  {
   "id": "3a74e63dd237",
   "name": "BR - SP - Ubatuba - SP125 km 93 - Oswaldo Cruz",
   "country": "BR",
   "lat": -23.4374,
   "lon": -45.09635,
   "environment": "traffic",
   "scene": "traffic",
   "type": "hls",
   "src": "https://34.104.32.249.nip.io/SP125-KM093A/stream.m3u8",
   "verified": true,
   "last_ok": "2026-07-18T21:02:40+00:00"
  },
  {
   "id": "a4b868679be1",
   "name": "BR - São Paulo - Aparecida - Aparecida Basilica Pilgrimage Hub",
   "country": "BR",
   "lat": -22.84763,
   "lon": -45.23112,
   "environment": "landmark",
   "scene": "landmark",
   "type": "youtube",
   "video_id": "X52LJG2z_UQ",
   "embed": "https://www.youtube.com/embed/X52LJG2z_UQ?autoplay=1&mute=1&playsinline=1",
   "verified": true,
   "last_ok": "2026-07-18T21:02:40+00:00"
  },
  {
   "id": "392c2af6b309",
   "name": "Balneario Camboriu Avenida Atlantica North",
   "country": "BR",
   "lat": -26.982,
   "lon": -48.629,
   "environment": "coastal",
   "scene": "beach",
   "type": "youtube",
   "video_id": "IZbCXuEa8Cc",
   "embed": "https://www.youtube.com/embed/IZbCXuEa8Cc?autoplay=1&mute=1&playsinline=1",
   "verified": true,
   "last_ok": "2026-07-18T21:02:40+00:00"
  },
  {
   "id": "3afe45daa98a",
   "name": "Balneario Camboriu Central Beach",
   "country": "BR",
   "lat": -26.9905,
   "lon": -48.6328,
   "environment": "coastal",
   "scene": "beach",
   "type": "youtube",
   "video_id": "7x-BbgRekC0",
   "embed": "https://www.youtube.com/embed/7x-BbgRekC0?autoplay=1&mute=1&playsinline=1",
   "verified": true,
   "last_ok": "2026-07-18T21:02:40+00:00"
  },
  {
   "id": "ad6b20f05d2b",
   "name": "Balneario Rincao Beach",
   "country": "BR",
   "lat": -28.831,
   "lon": -49.236,
   "environment": "coastal",
   "scene": "beach",
   "type": "youtube",
   "video_id": "mWsPnnbHKE0",
   "embed": "https://www.youtube.com/embed/mWsPnnbHKE0?autoplay=1&mute=1&playsinline=1",
   "verified": true,
   "last_ok": "2026-07-18T21:02:40+00:00"
  },
  {
   "id": "2fa24fa4faad",
   "name": "Cabo Frio Beach Cameras",
   "country": "BR",
   "lat": -22.8807,
   "lon": -42.0161,
   "environment": "coastal",
   "scene": "beach",
   "type": "youtube",
   "video_id": "HsfII35xV4g",
   "embed": "https://www.youtube.com/embed/HsfII35xV4g?autoplay=1&mute=1&playsinline=1",
   "verified": true,
   "last_ok": "2026-07-18T21:02:40+00:00"
  },
  {
   "id": "8b8edb63dea1",
   "name": "Copacabana Beach Panorama — Rio de Janeiro, Brazil",
   "country": "BR",
   "lat": -22.968,
   "lon": -43.175,
   "environment": "coastal",
   "scene": "beach",
   "type": "youtube",
   "video_id": "MKptOzPxVV8",
   "embed": "https://www.youtube.com/embed/MKptOzPxVV8?autoplay=1&mute=1&playsinline=1",
   "verified": true,
   "last_ok": "2026-07-18T21:02:40+00:00"
  },
  {
   "id": "c92bfdfb23e8",
   "name": "Encontro das Aguas - Manaus, Amazonas",
   "country": "BR",
   "lat": -3.20018,
   "lon": -59.49893,
   "environment": "waterway",
   "scene": "river",
   "type": "youtube",
   "video_id": "XQR__cmu6As",
   "embed": "https://www.youtube.com/embed/XQR__cmu6As?autoplay=1&mute=1&playsinline=1",
   "verified": true,
   "last_ok": "2026-07-18T21:02:40+00:00"
  },
  {
   "id": "38f2e2692f9d",
   "name": "Florianopolis Canto da Lagoa",
   "country": "BR",
   "lat": -27.622,
   "lon": -48.462,
   "environment": "lake",
   "scene": "lake",
   "type": "youtube",
   "video_id": "1ffJojfUyRA",
   "embed": "https://www.youtube.com/embed/1ffJojfUyRA?autoplay=1&mute=1&playsinline=1",
   "verified": true,
   "last_ok": "2026-07-18T21:02:40+00:00"
  },
  {
   "id": "ae2dd8e5d7b6",
   "name": "Florianopolis Lagoa da Conceicao Mirante",
   "country": "BR",
   "lat": -27.599,
   "lon": -48.467,
   "environment": "lake",
   "scene": "lake",
   "type": "youtube",
   "video_id": "egXyN_SwY-E",
   "embed": "https://www.youtube.com/embed/egXyN_SwY-E?autoplay=1&mute=1&playsinline=1",
   "verified": true,
   "last_ok": "2026-07-18T21:02:40+00:00"
  },
  {
   "id": "86ca7ebf906a",
   "name": "Florianopolis Praia dos Ingleses",
   "country": "BR",
   "lat": -27.437,
   "lon": -48.397,
   "environment": "coastal",
   "scene": "beach",
   "type": "youtube",
   "video_id": "SOEQjXjZCF0",
   "embed": "https://www.youtube.com/embed/SOEQjXjZCF0?autoplay=1&mute=1&playsinline=1",
   "verified": true,
   "last_ok": "2026-07-18T21:02:40+00:00"
  },
  {
   "id": "0ce7c2cdf3a2",
   "name": "Guaruja Pitangueiras Beach Webcam",
   "country": "BR",
   "lat": -23.998,
   "lon": -46.256,
   "environment": "coastal",
   "scene": "beach",
   "type": "youtube",
   "video_id": "geAj9DGl-Pw",
   "embed": "https://www.youtube.com/embed/geAj9DGl-Pw?autoplay=1&mute=1&playsinline=1",
   "verified": true,
   "last_ok": "2026-07-18T21:02:40+00:00"
  },
  {
   "id": "06b3032069f7",
   "name": "Ilha Porchat Webcam - Brazil 🎦",
   "country": "BR",
   "lat": -23.5475,
   "lon": -46.63611,
   "environment": "coastal",
   "scene": "beach",
   "type": "youtube",
   "video_id": "RT4JhqVP8AY",
   "embed": "https://www.youtube.com/embed/RT4JhqVP8AY?autoplay=1&mute=1&playsinline=1",
   "verified": true,
   "last_ok": "2026-07-18T21:02:40+00:00"
  },
  {
   "id": "291e7599a090",
   "name": "Itajai Port Waterfront",
   "country": "BR",
   "lat": -26.9101,
   "lon": -48.6567,
   "environment": "harbor",
   "scene": "harbor",
   "type": "youtube",
   "video_id": "ADOsuLQ_6iM",
   "embed": "https://www.youtube.com/embed/ADOsuLQ_6iM?autoplay=1&mute=1&playsinline=1",
   "verified": true,
   "last_ok": "2026-07-18T21:02:40+00:00"
  },
  {
   "id": "bcc91696e485",
   "name": "Marginal Pinheiros — São Paulo, Brazil",
   "country": "BR",
   "lat": -23.5912,
   "lon": -46.6897,
   "environment": "traffic",
   "scene": "traffic",
   "type": "youtube",
   "video_id": "GA4YMcRmHM0",
   "embed": "https://www.youtube.com/embed/GA4YMcRmHM0?autoplay=1&mute=1&playsinline=1",
   "verified": true,
   "last_ok": "2026-07-18T21:02:40+00:00"
  },
  {
   "id": "871f83b941ab",
   "name": "Ocian Praia Grande Beach Cameras 24H",
   "country": "BR",
   "lat": -24.0167,
   "lon": -46.467,
   "environment": "coastal",
   "scene": "beach",
   "type": "youtube",
   "video_id": "owJHKExR8QM",
   "embed": "https://www.youtube.com/embed/owJHKExR8QM?autoplay=1&mute=1&playsinline=1",
   "verified": true,
   "last_ok": "2026-07-18T21:02:40+00:00"
  },
  {
   "id": "d4af48766f68",
   "name": "Pereque Acu - Meio - Ubatuba",
   "country": "BR",
   "lat": -23.425,
   "lon": -45.06,
   "environment": "coastal",
   "scene": "beach",
   "type": "youtube",
   "video_id": "5mV2qwFTdzA",
   "embed": "https://www.youtube.com/embed/5mV2qwFTdzA?autoplay=1&mute=1&playsinline=1",
   "verified": true,
   "last_ok": "2026-07-18T21:02:40+00:00"
  },
  {
   "id": "7b44a60ce2bd",
   "name": "Porto ao Vivo - Entrada no Canal do Porto de Santos",
   "country": "BR",
   "lat": -23.992,
   "lon": -46.306,
   "environment": "harbor",
   "scene": "harbor",
   "type": "youtube",
   "video_id": "tMYtrEBNVAU",
   "embed": "https://www.youtube.com/embed/tMYtrEBNVAU?autoplay=1&mute=1&playsinline=1",
   "verified": true,
   "last_ok": "2026-07-18T21:02:40+00:00"
  },
  {
   "id": "503aedfef0f2",
   "name": "Praia Grande Tupi 24H",
   "country": "BR",
   "lat": -24.026,
   "lon": -46.491,
   "environment": "coastal",
   "scene": "beach",
   "type": "youtube",
   "video_id": "66r3gqV15EI",
   "embed": "https://www.youtube.com/embed/66r3gqV15EI?autoplay=1&mute=1&playsinline=1",
   "verified": true,
   "last_ok": "2026-07-18T21:02:40+00:00"
  },
  {
   "id": "da845b3d384b",
   "name": "Rio de Janeiro Cam - Copacabana Posto 3",
   "country": "BR",
   "lat": -22.96696,
   "lon": -43.18356,
   "environment": "coastal",
   "scene": "beach",
   "type": "youtube",
   "video_id": "WzpkxorAoO4",
   "embed": "https://www.youtube.com/embed/WzpkxorAoO4?autoplay=1&mute=1&playsinline=1",
   "verified": true,
   "last_ok": "2026-07-18T21:02:40+00:00"
  },
  {
   "id": "530b545c5b59",
   "name": "Santos Canal 1 Beach",
   "country": "BR",
   "lat": -23.969,
   "lon": -46.322,
   "environment": "coastal",
   "scene": "beach",
   "type": "youtube",
   "video_id": "khtAH8ZGS0A",
   "embed": "https://www.youtube.com/embed/khtAH8ZGS0A?autoplay=1&mute=1&playsinline=1",
   "verified": true,
   "last_ok": "2026-07-18T21:02:40+00:00"
  },
  {
   "id": "5356433548ea",
   "name": "Santos Port Panoramic 4K",
   "country": "BR",
   "lat": -23.951,
   "lon": -46.312,
   "environment": "harbor",
   "scene": "harbor",
   "type": "youtube",
   "video_id": "AX74XKJZdJM",
   "embed": "https://www.youtube.com/embed/AX74XKJZdJM?autoplay=1&mute=1&playsinline=1",
   "verified": true,
   "last_ok": "2026-07-18T21:02:40+00:00"
  },
  {
   "id": "9972b3708813",
   "name": "Santos Surf Conditions Beach",
   "country": "BR",
   "lat": -23.971,
   "lon": -46.333,
   "environment": "coastal",
   "scene": "beach",
   "type": "youtube",
   "video_id": "jychMSrX9w0",
   "embed": "https://www.youtube.com/embed/jychMSrX9w0?autoplay=1&mute=1&playsinline=1",
   "verified": true,
   "last_ok": "2026-07-18T21:02:40+00:00"
  },
  {
   "id": "d92072ab59cf",
   "name": "Tenorio Canto Direito Ubatuba",
   "country": "BR",
   "lat": -23.456,
   "lon": -45.069,
   "environment": "coastal",
   "scene": "beach",
   "type": "youtube",
   "video_id": "0W4wB6QChUA",
   "embed": "https://www.youtube.com/embed/0W4wB6QChUA?autoplay=1&mute=1&playsinline=1",
   "verified": true,
   "last_ok": "2026-07-18T21:02:40+00:00"
  },
  {
   "id": "065a0b78b5e0",
   "name": "Banff - Rock Isle Lake",
   "country": "CA",
   "lat": 51.17622,
   "lon": -115.56982,
   "environment": "lake",
   "scene": "lake",
   "type": "youtube",
   "video_id": "m1F2ggd0hxA",
   "embed": "https://www.youtube.com/embed/m1F2ggd0hxA?autoplay=1&mute=1&playsinline=1",
   "verified": true,
   "last_ok": "2026-07-18T21:02:40+00:00"
  },
  {
   "id": "a4dfac92ad92",
   "name": "Banff Sunshine Village",
   "country": "CA",
   "lat": 51.09583,
   "lon": -115.77217,
   "environment": "urban",
   "scene": "city",
   "type": "youtube",
   "video_id": "OJzDoKXXoGw",
   "embed": "https://www.youtube.com/embed/OJzDoKXXoGw?autoplay=1&mute=1&playsinline=1",
   "verified": true,
   "last_ok": "2026-07-18T21:02:40+00:00"
  },
  {
   "id": "5f9ecbb6d037",
   "name": "CA - Kelowna - Outdoor Beaver enclosure cam",
   "country": "CA",
   "lat": 49.60138,
   "lon": -119.68219,
   "environment": "traffic",
   "scene": "traffic",
   "type": "youtube",
   "video_id": "zkTaY9OQM2A",
   "embed": "https://www.youtube.com/embed/zkTaY9OQM2A?autoplay=1&mute=1&playsinline=1",
   "verified": true,
   "last_ok": "2026-07-18T21:02:40+00:00"
  },
  {
   "id": "de7b704d8d55",
   "name": "Canada Place Harbour — Vancouver, BC",
   "country": "CA",
   "lat": 49.289,
   "lon": -123.111,
   "environment": "harbor",
   "scene": "harbor",
   "type": "youtube",
   "video_id": "rxyNjFKwzJA",
   "embed": "https://www.youtube.com/embed/rxyNjFKwzJA?autoplay=1&mute=1&playsinline=1",
   "verified": true,
   "last_ok": "2026-07-18T21:02:40+00:00"
  },
  {
   "id": "298057fbf2c2",
   "name": "Canmore - Railway Avenue",
   "country": "CA",
   "lat": 51.08335,
   "lon": -115.35206,
   "environment": "urban",
   "scene": "city",
   "type": "youtube",
   "video_id": "-Fe7o0j58_s",
   "embed": "https://www.youtube.com/embed/-Fe7o0j58_s?autoplay=1&mute=1&playsinline=1",
   "verified": true,
   "last_ok": "2026-07-18T21:02:40+00:00"
  },
  {
   "id": "d61966b6bd56",
   "name": "Celebration Square Webcam - Canada 🎦",
   "country": "CA",
   "lat": 43.5789,
   "lon": -79.6583,
   "environment": "urban",
   "scene": "city",
   "type": "hls",
   "src": "https://webvideo.mississauga.ca/StageWebcam/LiveStageWebcam.stream-audiodestin/playlist.m3u8",
   "verified": true,
   "last_ok": "2026-07-18T21:02:40+00:00"
  },
  {
   "id": "b220e919bb40",
   "name": "Downtown, view of George Street",
   "country": "CA",
   "lat": 53.92,
   "lon": -122.75,
   "environment": "urban",
   "scene": "city",
   "type": "youtube",
   "video_id": "fDpNeUvss30",
   "embed": "https://www.youtube.com/embed/fDpNeUvss30?autoplay=1&mute=1&playsinline=1",
   "verified": true,
   "last_ok": "2026-07-18T21:02:40+00:00"
  },
  {
   "id": "bcd4fa554dcb",
   "name": "Ha Ling Peak View — Canmore, Alberta",
   "country": "CA",
   "lat": 51.088,
   "lon": -115.348,
   "environment": "mountain",
   "scene": "mountain",
   "type": "youtube",
   "video_id": "RdRmXqnBZ-c",
   "embed": "https://www.youtube.com/embed/RdRmXqnBZ-c?autoplay=1&mute=1&playsinline=1",
   "verified": true,
   "last_ok": "2026-07-18T21:02:40+00:00"
  },
  {
   "id": "e422ed4e91fe",
   "name": "Mississauga Celebration Square",
   "country": "CA",
   "lat": 43.58805,
   "lon": -79.64279,
   "environment": "urban",
   "scene": "city",
   "type": "hls",
   "src": "https://webvideo.mississauga.ca/BalconyWebcam/LiveWebcam.stream/chunklist_w1473770124.m3u8",
   "verified": true,
   "last_ok": "2026-07-18T21:02:40+00:00"
  },
  {
   "id": "cf32dea4275a",
   "name": "Peggys Cove Lighthouse Webcam - Canada 🎦",
   "country": "CA",
   "lat": 44.4929,
   "lon": -63.91611,
   "environment": "coastal",
   "scene": "beach",
   "type": "youtube",
   "video_id": "SFoS6nBL138",
   "embed": "https://www.youtube.com/embed/SFoS6nBL138?autoplay=1&mute=1&playsinline=1",
   "verified": true,
   "last_ok": "2026-07-18T21:02:40+00:00"
  },
  {
   "id": "e66ad6b6698c",
   "name": "Port de Quebec Live",
   "country": "CA",
   "lat": 46.81374,
   "lon": -71.20841,
   "environment": "harbor",
   "scene": "harbor",
   "type": "youtube",
   "video_id": "I-7mv4-BJ7M",
   "embed": "https://www.youtube.com/embed/I-7mv4-BJ7M?autoplay=1&mute=1&playsinline=1",
   "verified": true,
   "last_ok": "2026-07-18T21:02:40+00:00"
  },
  {
   "id": "444c65653eea",
   "name": "Royal Victoria Yacht Club at Cadboro Bay",
   "country": "CA",
   "lat": 48.45141,
   "lon": -123.29659,
   "environment": "coastal",
   "scene": "beach",
   "type": "youtube",
   "video_id": "MaYMrtIXxvA",
   "embed": "https://www.youtube.com/embed/MaYMrtIXxvA?autoplay=1&mute=1&playsinline=1",
   "verified": true,
   "last_ok": "2026-07-18T21:02:40+00:00"
  },
  {
   "id": "384fa51bee02",
   "name": "Tofino - Chesterman Beach",
   "country": "CA",
   "lat": 49.15314,
   "lon": -125.90744,
   "environment": "coastal",
   "scene": "beach",
   "type": "youtube",
   "video_id": "ABI1FZmrwbQ",
   "embed": "https://www.youtube.com/embed/ABI1FZmrwbQ?autoplay=1&mute=1&playsinline=1",
   "verified": true,
   "last_ok": "2026-07-18T21:02:40+00:00"
  },
  {
   "id": "feb07268216e",
   "name": "Tsehum Harbour in Sidney",
   "country": "CA",
   "lat": 48.68279,
   "lon": -123.41849,
   "environment": "harbor",
   "scene": "harbor",
   "type": "youtube",
   "video_id": "aUFnuTqMEcY",
   "embed": "https://www.youtube.com/embed/aUFnuTqMEcY?autoplay=1&mute=1&playsinline=1",
   "verified": true,
   "last_ok": "2026-07-18T21:02:40+00:00"
  },
  {
   "id": "48328788f5c4",
   "name": "Vancouvers downtown skyline Webcam - Canada 🎦",
   "country": "CA",
   "lat": 60.10867,
   "lon": -113.64258,
   "environment": "nature",
   "scene": "nature",
   "type": "youtube",
   "video_id": "GHEmhcWjiTE",
   "embed": "https://www.youtube.com/embed/GHEmhcWjiTE?autoplay=1&mute=1&playsinline=1",
   "verified": true,
   "last_ok": "2026-07-18T21:02:40+00:00"
  },
  {
   "id": "f9e1ab727bc2",
   "name": "White Rock Pier - B.C Webcam - Canada 🎦",
   "country": "CA",
   "lat": 60.10867,
   "lon": -113.64258,
   "environment": "coastal",
   "scene": "beach",
   "type": "youtube",
   "video_id": "4MK3E9EWDSY",
   "embed": "https://www.youtube.com/embed/4MK3E9EWDSY?autoplay=1&mute=1&playsinline=1",
   "verified": true,
   "last_ok": "2026-07-18T21:02:40+00:00"
  },
  {
   "id": "18442ec4e092",
   "name": "CN - 南坑街道 - 【LIVE】野間雲海ビュースポット",
   "country": "CN",
   "lat": 24.51898,
   "lon": 117.65375,
   "environment": "traffic",
   "scene": "traffic",
   "type": "youtube",
   "video_id": "_61oLL-8Gt0",
   "embed": "https://www.youtube.com/embed/_61oLL-8Gt0?autoplay=1&mute=1&playsinline=1",
   "verified": true,
   "last_ok": "2026-07-18T21:02:40+00:00"
  },
  {
   "id": "c0f82f82d8eb",
   "name": "Curacao Swinging Bridge Waterfront",
   "country": "CW",
   "lat": 12.10708,
   "lon": -68.93639,
   "environment": "coastal",
   "scene": "waterfront",
   "type": "youtube",
   "video_id": "28U-t3fA9ks",
   "embed": "https://www.youtube.com/embed/28U-t3fA9ks?autoplay=1&mute=1&playsinline=1",
   "verified": true,
   "last_ok": "2026-07-18T21:02:40+00:00"
  },
  {
   "id": "88687afab596",
   "name": "Klein Curacao Mermaid Boat Trips Live Cam",
   "country": "CW",
   "lat": 11.989,
   "lon": -68.643,
   "environment": "coastal",
   "scene": "beach",
   "type": "youtube",
   "video_id": "0ImA9IcyQwA",
   "embed": "https://www.youtube.com/embed/0ImA9IcyQwA?autoplay=1&mute=1&playsinline=1",
   "verified": true,
   "last_ok": "2026-07-18T21:02:40+00:00"
  },
  {
   "id": "e24834be9133",
   "name": "CZ - Boží Dar - Boží Dar - radnice",
   "country": "CZ",
   "lat": 50.4097,
   "lon": 12.9245,
   "environment": "traffic",
   "scene": "traffic",
   "type": "hls",
   "src": "https://kamery3.wolfnet.cz/bozi_dar.m3u8",
   "verified": true,
   "last_ok": "2026-07-18T21:02:40+00:00"
  },
  {
   "id": "478627d35dda",
   "name": "CZ - Boží Dar - Boží vyhlídka #1",
   "country": "CZ",
   "lat": 50.4055,
   "lon": 12.927,
   "environment": "traffic",
   "scene": "traffic",
   "type": "hls",
   "src": "https://kamery2.wolfnet.cz/bozi_vyhlidka1.m3u8",
   "verified": true,
   "last_ok": "2026-07-18T21:02:40+00:00"
  },
  {
   "id": "cf61cfbb0f8e",
   "name": "CZ - Karlovy Vary - TV Krušná",
   "country": "CZ",
   "lat": 50.253,
   "lon": 12.865,
   "environment": "traffic",
   "scene": "traffic",
   "type": "hls",
   "src": "https://kamery2.wolfnet.cz/krusna.m3u8",
   "verified": true,
   "last_ok": "2026-07-18T21:02:40+00:00"
  },
  {
   "id": "66092844e4cf",
   "name": "CZ - Karlovy Vary - TV Panorama",
   "country": "CZ",
   "lat": 50.2319,
   "lon": 12.8712,
   "environment": "traffic",
   "scene": "traffic",
   "type": "hls",
   "src": "https://kamery2.wolfnet.cz/panorama.m3u8",
   "verified": true,
   "last_ok": "2026-07-18T21:02:40+00:00"
  },
  {
   "id": "da304537b398",
   "name": "CZ - Loučná pod Klínovcem - Klínovec - otočná #1",
   "country": "CZ",
   "lat": 50.4023,
   "lon": 12.9738,
   "environment": "traffic",
   "scene": "traffic",
   "type": "hls",
   "src": "https://kamery2.wolfnet.cz/Klinovec_1.m3u8",
   "verified": true,
   "last_ok": "2026-07-18T21:02:40+00:00"
  },
  {
   "id": "43b1224863cb",
   "name": "CZ - Sokolov - Sokolov - otočná kamera",
   "country": "CZ",
   "lat": 50.1813,
   "lon": 12.6401,
   "environment": "traffic",
   "scene": "traffic",
   "type": "hls",
   "src": "https://kamery3.wolfnet.cz/sokolov-otocna.m3u8",
   "verified": true,
   "last_ok": "2026-07-18T21:02:40+00:00"
  },
  {
   "id": "18714540e7bf",
   "name": "Zlin, Peace Square Webcam - Czech Republic 🎦",
   "country": "CZ",
   "lat": 49.22665,
   "lon": 17.66772,
   "environment": "urban",
   "scene": "city",
   "type": "youtube",
   "video_id": "CSAcxQA2shE",
   "embed": "https://www.youtube.com/embed/CSAcxQA2shE?autoplay=1&mute=1&playsinline=1",
   "verified": true,
   "last_ok": "2026-07-18T21:02:40+00:00"
  },
  {
   "id": "405da79260f8",
   "name": "Bremen Market Square Webcam - Germany 🎦",
   "country": "DE",
   "lat": 53.0749,
   "lon": 8.80716,
   "environment": "nature",
   "scene": "nature",
   "type": "youtube",
   "video_id": "SsyiWrkUjy4",
   "embed": "https://www.youtube.com/embed/SsyiWrkUjy4?autoplay=1&mute=1&playsinline=1",
   "verified": true,
   "last_ok": "2026-07-18T21:02:40+00:00"
  },
  {
   "id": "3bbf91d97c91",
   "name": "Elbcam Grauerort Fortress Webcam - Germany 🎦",
   "country": "DE",
   "lat": 53.55073,
   "lon": 9.99302,
   "environment": "coastal",
   "scene": "beach",
   "type": "youtube",
   "video_id": "nmic4tt88-Y",
   "embed": "https://www.youtube.com/embed/nmic4tt88-Y?autoplay=1&mute=1&playsinline=1",
   "verified": true,
   "last_ok": "2026-07-18T21:02:40+00:00"
  },
  {
   "id": "e377373b55bd",
   "name": "The Grömitz Coast Webcam - Germany 🎦",
   "country": "DE",
   "lat": 54.15052,
   "lon": 10.96011,
   "environment": "coastal",
   "scene": "beach",
   "type": "hls",
   "src": "https://osl9.lvstrm.de/hls/stream.m3u8",
   "verified": true,
   "last_ok": "2026-07-18T21:02:40+00:00"
  },
  {
   "id": "25a4f7d883cc",
   "name": "Trimburg Medieval Castle Ruins Webcam - Germany 🎦",
   "country": "DE",
   "lat": 50.14743,
   "lon": 9.96151,
   "environment": "landmark",
   "scene": "landmark",
   "type": "youtube",
   "video_id": "M1TS9GEIGoI",
   "embed": "https://www.youtube.com/embed/M1TS9GEIGoI?autoplay=1&mute=1&playsinline=1",
   "verified": true,
   "last_ok": "2026-07-18T21:02:40+00:00"
  },
  {
   "id": "8a77fa07eba5",
   "name": "Sangay Volcano 24/7 4K — Morona Santiago, Ecuador",
   "country": "EC",
   "lat": -2.0053,
   "lon": -78.3412,
   "environment": "urban",
   "scene": "city",
   "type": "youtube",
   "video_id": "vK3RouzZoT4",
   "embed": "https://www.youtube.com/embed/vK3RouzZoT4?autoplay=1&mute=1&playsinline=1",
   "verified": true,
   "last_ok": "2026-07-18T21:02:40+00:00"
  },
  {
   "id": "c1a33c1e40f8",
   "name": "TV Tower",
   "country": "EE",
   "lat": 59.47129,
   "lon": 24.88751,
   "environment": "urban",
   "scene": "city",
   "type": "hls",
   "src": "https://sv.levira.com/teletorn/smil:teletorn.smil/chunklist_w282021538_b2096000_DVR.m3u8",
   "verified": true,
   "last_ok": "2026-07-18T21:02:40+00:00"
  },
  {
   "id": "80fed2cb1e28",
   "name": "Alguer Beach Webcam - Spain 🎦",
   "country": "ES",
   "lat": 40.0,
   "lon": -4.0,
   "environment": "coastal",
   "scene": "beach",
   "type": "youtube",
   "video_id": "W9DP0Je5rKU",
   "embed": "https://www.youtube.com/embed/W9DP0Je5rKU?autoplay=1&mute=1&playsinline=1",
   "verified": true,
   "last_ok": "2026-07-18T21:02:40+00:00"
  },
  {
   "id": "1adf40c5f8e3",
   "name": "Barcelona Harbor Live Stream",
   "country": "ES",
   "lat": 41.38258,
   "lon": 2.17707,
   "environment": "harbor",
   "scene": "harbor",
   "type": "youtube",
   "video_id": "C7659Fbj3nw",
   "embed": "https://www.youtube.com/embed/C7659Fbj3nw?autoplay=1&mute=1&playsinline=1",
   "verified": true,
   "last_ok": "2026-07-18T21:02:40+00:00"
  },
  {
   "id": "f810555b8491",
   "name": "Camp de Mar Beach Webcam - Spain 🎦",
   "country": "ES",
   "lat": 39.53827,
   "lon": 2.42386,
   "environment": "nature",
   "scene": "nature",
   "type": "youtube",
   "video_id": "pQil5Xc372E",
   "embed": "https://www.youtube.com/embed/pQil5Xc372E?autoplay=1&mute=1&playsinline=1",
   "verified": true,
   "last_ok": "2026-07-18T21:02:40+00:00"
  },
  {
   "id": "65a88cec9263",
   "name": "ES - Illes Balears - Formentera - La Mola",
   "country": "ES",
   "lat": 38.66576,
   "lon": 1.53504,
   "environment": "traffic",
   "scene": "traffic",
   "type": "hls",
   "src": "https://str2.eivotv.es/canal_r/index.m3u8",
   "verified": true,
   "last_ok": "2026-07-18T21:02:40+00:00"
  },
  {
   "id": "b88a63c8c216",
   "name": "ES - Illes Balears - Formentera - La Savina",
   "country": "ES",
   "lat": 38.73109,
   "lon": 1.41696,
   "environment": "traffic",
   "scene": "traffic",
   "type": "hls",
   "src": "https://str2.eivotv.es/canal_ai/index.m3u8",
   "verified": true,
   "last_ok": "2026-07-18T21:02:40+00:00"
  },
  {
   "id": "f5dbffa63181",
   "name": "ES - Illes Balears - Ibiza - Puig de sa Talaia",
   "country": "ES",
   "lat": 38.92368,
   "lon": 1.47058,
   "environment": "traffic",
   "scene": "traffic",
   "type": "hls",
   "src": "https://str2.eivotv.es/canal_o/index.m3u8",
   "verified": true,
   "last_ok": "2026-07-18T21:02:40+00:00"
  },
  {
   "id": "c45defd71fb5",
   "name": "ES - Illes Balears - Ibiza - San Josep",
   "country": "ES",
   "lat": 38.91559,
   "lon": 1.27752,
   "environment": "traffic",
   "scene": "traffic",
   "type": "hls",
   "src": "https://str4.strei.es/canal_s/index.m3u8",
   "verified": true,
   "last_ok": "2026-07-18T21:02:40+00:00"
  },
  {
   "id": "6b814f9d9ac4",
   "name": "ES - Illes Balears - Ibiza - Santa Eulària des Riu",
   "country": "ES",
   "lat": 38.97121,
   "lon": 1.52791,
   "environment": "traffic",
   "scene": "traffic",
   "type": "hls",
   "src": "https://str2.eivotv.es/canal_p/index.m3u8",
   "verified": true,
   "last_ok": "2026-07-18T21:02:40+00:00"
  },
  {
   "id": "ac84e64b8aac",
   "name": "ES - Illes Balears - Ibiza - Ses Figueretes",
   "country": "ES",
   "lat": 38.90589,
   "lon": 1.42565,
   "environment": "traffic",
   "scene": "traffic",
   "type": "hls",
   "src": "https://str4.strei.es/canal_ao/index.m3u8",
   "verified": true,
   "last_ok": "2026-07-18T21:02:40+00:00"
  },
  {
   "id": "444f9481406b",
   "name": "ES - Illes Balears - Mallorca - Alfàbia",
   "country": "ES",
   "lat": 39.73647,
   "lon": 2.71699,
   "environment": "traffic",
   "scene": "traffic",
   "type": "hls",
   "src": "https://str2.eivotv.es/canal_h/index.m3u8",
   "verified": true,
   "last_ok": "2026-07-18T21:02:40+00:00"
  },
  {
   "id": "370b846a1427",
   "name": "ES - Illes Balears - Mallorca - Cala Sant Vicenç",
   "country": "ES",
   "lat": 39.9188,
   "lon": 3.05882,
   "environment": "traffic",
   "scene": "traffic",
   "type": "hls",
   "src": "https://str2.eivotv.es/canal_i/index.m3u8",
   "verified": true,
   "last_ok": "2026-07-18T21:02:40+00:00"
  },
  {
   "id": "3fcb897d9983",
   "name": "ES - Illes Balears - Mallorca - Cap Blanc",
   "country": "ES",
   "lat": 39.36359,
   "lon": 2.78776,
   "environment": "traffic",
   "scene": "traffic",
   "type": "hls",
   "src": "https://str4.strei.es/canal_an/index.m3u8",
   "verified": true,
   "last_ok": "2026-07-18T21:02:40+00:00"
  },
  {
   "id": "e308edea6dc0",
   "name": "ES - Illes Balears - Mallorca - Capdepera",
   "country": "ES",
   "lat": 39.69838,
   "lon": 3.43481,
   "environment": "traffic",
   "scene": "traffic",
   "type": "hls",
   "src": "https://str2.eivotv.es/canal_a/index.m3u8",
   "verified": true,
   "last_ok": "2026-07-18T21:02:40+00:00"
  },
  {
   "id": "3c618b05fa62",
   "name": "ES - Illes Balears - Mallorca - Colònia Sant Jordi",
   "country": "ES",
   "lat": 39.31698,
   "lon": 2.99352,
   "environment": "traffic",
   "scene": "traffic",
   "type": "hls",
   "src": "https://str2.eivotv.es/canal_w/index.m3u8",
   "verified": true,
   "last_ok": "2026-07-18T21:02:40+00:00"
  },
  {
   "id": "672fe39f8162",
   "name": "ES - Illes Balears - Mallorca - Colònia de Sant Pere",
   "country": "ES",
   "lat": 39.73535,
   "lon": 3.27226,
   "environment": "traffic",
   "scene": "traffic",
   "type": "hls",
   "src": "https://str2.eivotv.es/canal_v/index.m3u8",
   "verified": true,
   "last_ok": "2026-07-18T21:02:40+00:00"
  },
  {
   "id": "38564fdf2452",
   "name": "ES - Illes Balears - Mallorca - El Toro - Calvià - 1",
   "country": "ES",
   "lat": 39.46225,
   "lon": 2.47218,
   "environment": "traffic",
   "scene": "traffic",
   "type": "hls",
   "src": "https://str2.eivotv.es/canal_aa/index.m3u8",
   "verified": true,
   "last_ok": "2026-07-18T21:02:40+00:00"
  },
  {
   "id": "b2da11f1dd01",
   "name": "ES - Illes Balears - Mallorca - Font de sa Cala",
   "country": "ES",
   "lat": 39.67743,
   "lon": 3.45134,
   "environment": "traffic",
   "scene": "traffic",
   "type": "hls",
   "src": "https://str2.eivotv.es/canal_t/index.m3u8",
   "verified": true,
   "last_ok": "2026-07-18T21:02:40+00:00"
  },
  {
   "id": "4a789dfe0c3d",
   "name": "ES - Illes Balears - Mallorca - Manacor",
   "country": "ES",
   "lat": 39.57205,
   "lon": 3.24216,
   "environment": "traffic",
   "scene": "traffic",
   "type": "hls",
   "src": "https://str2.eivotv.es/canal_af/index.m3u8",
   "verified": true,
   "last_ok": "2026-07-18T21:02:40+00:00"
  },
  {
   "id": "8fb03a227bc3",
   "name": "ES - Illes Balears - Mallorca - Mancor",
   "country": "ES",
   "lat": 39.75183,
   "lon": 2.87984,
   "environment": "traffic",
   "scene": "traffic",
   "type": "hls",
   "src": "https://str2.eivotv.es/canal_ad/index.m3u8",
   "verified": true,
   "last_ok": "2026-07-18T21:02:40+00:00"
  },
  {
   "id": "130471a370e3",
   "name": "ES - Illes Balears - Mallorca - Museu Sa Bassa Blanca",
   "country": "ES",
   "lat": 39.84375,
   "lon": 3.1802,
   "environment": "traffic",
   "scene": "traffic",
   "type": "hls",
   "src": "https://str2.eivotv.es/canal_l/index.m3u8",
   "verified": true,
   "last_ok": "2026-07-18T21:02:40+00:00"
  },
  {
   "id": "bc91f511e4c8",
   "name": "ES - Illes Balears - Mallorca - Platja Alconàsser - Sóller",
   "country": "ES",
   "lat": 39.783,
   "lon": 2.6707,
   "environment": "traffic",
   "scene": "traffic",
   "type": "hls",
   "src": "https://str2.eivotv.es/canal_q/index.m3u8",
   "verified": true,
   "last_ok": "2026-07-18T21:02:40+00:00"
  },
  {
   "id": "bc00120783b5",
   "name": "ES - Illes Balears - Mallorca - Port de Pollença Playa",
   "country": "ES",
   "lat": 39.90282,
   "lon": 3.08025,
   "environment": "traffic",
   "scene": "traffic",
   "type": "hls",
   "src": "https://str2.eivotv.es/canal_ag/index.m3u8",
   "verified": true,
   "last_ok": "2026-07-18T21:02:40+00:00"
  },
  {
   "id": "2f2acdc4f705",
   "name": "ES - Illes Balears - Mallorca - Puig de Maria, Pollença",
   "country": "ES",
   "lat": 39.869,
   "lon": 3.02254,
   "environment": "traffic",
   "scene": "traffic",
   "type": "hls",
   "src": "https://str2.eivotv.es/canal_u/index.m3u8",
   "verified": true,
   "last_ok": "2026-07-18T21:02:40+00:00"
  },
  {
   "id": "42a68a5d107d",
   "name": "ES - Illes Balears - Mallorca - Puig de Randa",
   "country": "ES",
   "lat": 39.52679,
   "lon": 2.92837,
   "environment": "traffic",
   "scene": "traffic",
   "type": "hls",
   "src": "https://str2.eivotv.es/canal_e/index.m3u8",
   "verified": true,
   "last_ok": "2026-07-18T21:02:40+00:00"
  },
  {
   "id": "cb95b9e189df",
   "name": "ES - Illes Balears - Mallorca - Puig de sa Tudossa - Artà",
   "country": "ES",
   "lat": 39.76499,
   "lon": 3.34334,
   "environment": "traffic",
   "scene": "traffic",
   "type": "hls",
   "src": "https://str2.eivotv.es/canal_k/index.m3u8",
   "verified": true,
   "last_ok": "2026-07-18T21:02:40+00:00"
  },
  {
   "id": "00ea4fdb3d1d",
   "name": "ES - Illes Balears - Mallorca - S'Illot",
   "country": "ES",
   "lat": 39.56992,
   "lon": 3.37335,
   "environment": "traffic",
   "scene": "traffic",
   "type": "hls",
   "src": "https://str2.eivotv.es/canal_j/index.m3u8",
   "verified": true,
   "last_ok": "2026-07-18T21:02:40+00:00"
  },
  {
   "id": "0ad6d2d7a93f",
   "name": "ES - Illes Balears - Mallorca - Santa Magdalena",
   "country": "ES",
   "lat": 39.72875,
   "lon": 2.95652,
   "environment": "traffic",
   "scene": "traffic",
   "type": "hls",
   "src": "https://str4.strei.es/canal_am/index.m3u8",
   "verified": true,
   "last_ok": "2026-07-18T21:02:40+00:00"
  },
  {
   "id": "1c61ced64f7b",
   "name": "ES - Illes Balears - Menorca - Monte Toro",
   "country": "ES",
   "lat": 39.98428,
   "lon": 4.11315,
   "environment": "traffic",
   "scene": "traffic",
   "type": "hls",
   "src": "https://str2.eivotv.es/canal_g/index.m3u8",
   "verified": true,
   "last_ok": "2026-07-18T21:02:40+00:00"
  },
  {
   "id": "ba0920b5ee7e",
   "name": "ES - Illes Balears - Menorca - Punta Prima",
   "country": "ES",
   "lat": 39.8145,
   "lon": 4.28085,
   "environment": "traffic",
   "scene": "traffic",
   "type": "hls",
   "src": "https://str4.strei.es/canal_al/index.m3u8",
   "verified": true,
   "last_ok": "2026-07-18T21:02:40+00:00"
  },
  {
   "id": "c69820413dd0",
   "name": "ES - Illes Balears - Menorca - Sa Mesquida",
   "country": "ES",
   "lat": 39.91061,
   "lon": 4.2913,
   "environment": "traffic",
   "scene": "traffic",
   "type": "hls",
   "src": "https://str4.strei.es/canal_ak/index.m3u8",
   "verified": true,
   "last_ok": "2026-07-18T21:02:40+00:00"
  },
  {
   "id": "c3be3b1f07bc",
   "name": "LIVE 🔴 WEBCAM from PUERTO del CARMEN BEACH - (Lanzarote, Canary Islands, Spain)",
   "country": "ES",
   "lat": 29.03971,
   "lon": -13.63629,
   "environment": "coastal",
   "scene": "beach",
   "type": "youtube",
   "video_id": "AfD16cDYBbE",
   "embed": "https://www.youtube.com/embed/AfD16cDYBbE?autoplay=1&mute=1&playsinline=1",
   "verified": true,
   "last_ok": "2026-07-18T21:02:40+00:00"
  },
  {
   "id": "09c6cd5b6cc4",
   "name": "The Seafront of Salinas Webcam - Spain 🎦",
   "country": "ES",
   "lat": 40.0,
   "lon": -4.0,
   "environment": "coastal",
   "scene": "beach",
   "type": "youtube",
   "video_id": "doNsXrJHErU",
   "embed": "https://www.youtube.com/embed/doNsXrJHErU?autoplay=1&mute=1&playsinline=1",
   "verified": true,
   "last_ok": "2026-07-18T21:02:40+00:00"
  },
  {
   "id": "c55d6678dc9f",
   "name": "Webcam Playa de Altea",
   "country": "ES",
   "lat": 38.60114,
   "lon": -0.04581,
   "environment": "coastal",
   "scene": "beach",
   "type": "youtube",
   "video_id": "hvsK8Fvz4rE",
   "embed": "https://www.youtube.com/embed/hvsK8Fvz4rE?autoplay=1&mute=1&playsinline=1",
   "verified": true,
   "last_ok": "2026-07-18T21:02:40+00:00"
  },
  {
   "id": "30f5f810091e",
   "name": "Kuopio Market Square Webcam - Finland 🎦",
   "country": "FI",
   "lat": 64.0,
   "lon": 26.0,
   "environment": "urban",
   "scene": "city",
   "type": "youtube",
   "video_id": "T7RdJdFMz-U",
   "embed": "https://www.youtube.com/embed/T7RdJdFMz-U?autoplay=1&mute=1&playsinline=1",
   "verified": true,
   "last_ok": "2026-07-18T21:02:40+00:00"
  },
  {
   "id": "347cb66c4c7b",
   "name": "Patoniva River, Oulanka National Park Webcam - Finland 🎦",
   "country": "FI",
   "lat": 66.4,
   "lon": 29.2,
   "environment": "nature",
   "scene": "nature",
   "type": "youtube",
   "video_id": "L7F3XGPA6vo",
   "embed": "https://www.youtube.com/embed/L7F3XGPA6vo?autoplay=1&mute=1&playsinline=1",
   "verified": true,
   "last_ok": "2026-07-18T21:02:40+00:00"
  },
  {
   "id": "c8f49369c9af",
   "name": "Yyteri Beach, Pori Webcam - Finland 🎦",
   "country": "FI",
   "lat": 61.48072,
   "lon": 21.78518,
   "environment": "coastal",
   "scene": "beach",
   "type": "youtube",
   "video_id": "n8i3AnhnPXc",
   "embed": "https://www.youtube.com/embed/n8i3AnhnPXc?autoplay=1&mute=1&playsinline=1",
   "verified": true,
   "last_ok": "2026-07-18T21:02:40+00:00"
  },
  {
   "id": "5e5552873647",
   "name": "Gambetta Square Webcam - Live Views from Amiens",
   "country": "FR",
   "lat": 49.89323,
   "lon": 2.29756,
   "environment": "urban",
   "scene": "city",
   "type": "youtube",
   "video_id": "4i7ioN8wS20",
   "embed": "https://www.youtube.com/embed/4i7ioN8wS20?autoplay=1&mute=1&playsinline=1",
   "verified": true,
   "last_ok": "2026-07-18T21:02:40+00:00"
  },
  {
   "id": "80cafe5602f2",
   "name": "La Plagne 2184 m Webcam - France 🎦",
   "country": "FR",
   "lat": 46.0,
   "lon": 2.0,
   "environment": "nature",
   "scene": "nature",
   "type": "youtube",
   "video_id": "8aT69PVOFWY",
   "embed": "https://www.youtube.com/embed/8aT69PVOFWY?autoplay=1&mute=1&playsinline=1",
   "verified": true,
   "last_ok": "2026-07-18T21:02:40+00:00"
  },
  {
   "id": "6748642751c9",
   "name": "Port Départemental Webcam - France 🎦",
   "country": "FR",
   "lat": 43.70392,
   "lon": 7.31088,
   "environment": "coastal",
   "scene": "beach",
   "type": "youtube",
   "video_id": "RRrizxBud1A",
   "embed": "https://www.youtube.com/embed/RRrizxBud1A?autoplay=1&mute=1&playsinline=1",
   "verified": true,
   "last_ok": "2026-07-18T21:02:40+00:00"
  },
  {
   "id": "e3fd73c89743",
   "name": "Port Mer Beach, Cancale Webcam - France 🎦",
   "country": "FR",
   "lat": 48.6766,
   "lon": -1.85216,
   "environment": "coastal",
   "scene": "beach",
   "type": "youtube",
   "video_id": "y1P2kxRTN3I",
   "embed": "https://www.youtube.com/embed/y1P2kxRTN3I?autoplay=1&mute=1&playsinline=1",
   "verified": true,
   "last_ok": "2026-07-18T21:02:40+00:00"
  },
  {
   "id": "e6c952cdcb36",
   "name": "Port of Vannes Webcam - France 🎦",
   "country": "FR",
   "lat": 47.65688,
   "lon": -2.76205,
   "environment": "coastal",
   "scene": "beach",
   "type": "youtube",
   "video_id": "dXckWr5B8f8",
   "embed": "https://www.youtube.com/embed/dXckWr5B8f8?autoplay=1&mute=1&playsinline=1",
   "verified": true,
   "last_ok": "2026-07-18T21:02:40+00:00"
  },
  {
   "id": "a33183c236d6",
   "name": "Saint-Malo panorama Webcam - France 🎦",
   "country": "FR",
   "lat": 48.64738,
   "lon": -2.00877,
   "environment": "nature",
   "scene": "nature",
   "type": "youtube",
   "video_id": "p6nAlz4_bdI",
   "embed": "https://www.youtube.com/embed/p6nAlz4_bdI?autoplay=1&mute=1&playsinline=1",
   "verified": true,
   "last_ok": "2026-07-18T21:02:40+00:00"
  },
  {
   "id": "44f3301ae341",
   "name": "Ehukai Beach Surf Highlights - Live Beaches",
   "country": "GB",
   "lat": 54.7,
   "lon": -3.28,
   "environment": "urban",
   "scene": "city",
   "type": "youtube",
   "video_id": "xHeLgPzOyfk",
   "embed": "https://www.youtube.com/embed/xHeLgPzOyfk?autoplay=1&mute=1&playsinline=1",
   "verified": true,
   "last_ok": "2026-07-18T21:02:40+00:00"
  },
  {
   "id": "64d143ac5bd0",
   "name": "Fort William — Loch Linnhe, Scotland",
   "country": "GB",
   "lat": 56.817,
   "lon": -5.112,
   "environment": "harbor",
   "scene": "harbor",
   "type": "youtube",
   "video_id": "2occtpoOu_w",
   "embed": "https://www.youtube.com/embed/2occtpoOu_w?autoplay=1&mute=1&playsinline=1",
   "verified": true,
   "last_ok": "2026-07-18T21:02:40+00:00"
  },
  {
   "id": "a1bf3b739152",
   "name": "Linlithgow Union Canal Webcam - Scotland 🎦",
   "country": "GB",
   "lat": 55.97639,
   "lon": -3.60364,
   "environment": "coastal",
   "scene": "beach",
   "type": "youtube",
   "video_id": "bNHCJhP6WCs",
   "embed": "https://www.youtube.com/embed/bNHCJhP6WCs?autoplay=1&mute=1&playsinline=1",
   "verified": true,
   "last_ok": "2026-07-18T21:02:40+00:00"
  },
  {
   "id": "268cca76beed",
   "name": "Looe Harbour - Plymouth Webcam - England 🎦",
   "country": "GB",
   "lat": 50.37153,
   "lon": -4.14305,
   "environment": "harbor",
   "scene": "harbor",
   "type": "hls",
   "src": "https://camstream.uk/HLS/looe3.m3u8",
   "verified": true,
   "last_ok": "2026-07-18T21:02:40+00:00"
  },
  {
   "id": "a326610368d6",
   "name": "Machynlleth - Osprey",
   "country": "GB",
   "lat": 52.58965,
   "lon": -3.85308,
   "environment": "urban",
   "scene": "city",
   "type": "youtube",
   "video_id": "GMJzMSOk-V0",
   "embed": "https://www.youtube.com/embed/GMJzMSOk-V0?autoplay=1&mute=1&playsinline=1",
   "verified": true,
   "last_ok": "2026-07-18T21:02:40+00:00"
  },
  {
   "id": "35ef45b6248a",
   "name": "New Quay - Wales",
   "country": "GB",
   "lat": 52.21515,
   "lon": -4.35887,
   "environment": "coastal",
   "scene": "beach",
   "type": "youtube",
   "video_id": "QX15Hwa2chY",
   "embed": "https://www.youtube.com/embed/QX15Hwa2chY?autoplay=1&mute=1&playsinline=1",
   "verified": true,
   "last_ok": "2026-07-18T21:02:40+00:00"
  },
  {
   "id": "290fea294546",
   "name": "Newport - Oregon Coast Aquarium",
   "country": "GB",
   "lat": 51.58774,
   "lon": -2.99835,
   "environment": "coastal",
   "scene": "beach",
   "type": "youtube",
   "video_id": "Nw-3ukCSobw",
   "embed": "https://www.youtube.com/embed/Nw-3ukCSobw?autoplay=1&mute=1&playsinline=1",
   "verified": true,
   "last_ok": "2026-07-18T21:02:40+00:00"
  },
  {
   "id": "944a155530c1",
   "name": "Saundersfoot - Wales",
   "country": "GB",
   "lat": 51.70945,
   "lon": -4.70215,
   "environment": "urban",
   "scene": "city",
   "type": "youtube",
   "video_id": "W-ouHLSr3fc",
   "embed": "https://www.youtube.com/embed/W-ouHLSr3fc?autoplay=1&mute=1&playsinline=1",
   "verified": true,
   "last_ok": "2026-07-18T21:02:40+00:00"
  },
  {
   "id": "9adaaf4ab958",
   "name": "St. Ives Beach",
   "country": "GB",
   "lat": 50.20861,
   "lon": -5.4875,
   "environment": "coastal",
   "scene": "beach",
   "type": "youtube",
   "video_id": "T83mKGf_c3k",
   "embed": "https://www.youtube.com/embed/T83mKGf_c3k?autoplay=1&mute=1&playsinline=1",
   "verified": true,
   "last_ok": "2026-07-18T21:02:40+00:00"
  },
  {
   "id": "a3d36d3645b1",
   "name": "Gulf of Ixia Webcam - Greece 🎦",
   "country": "GR",
   "lat": 36.43556,
   "lon": 28.22199,
   "environment": "coastal",
   "scene": "beach",
   "type": "youtube",
   "video_id": "h8ZGGzCcL5g",
   "embed": "https://www.youtube.com/embed/h8ZGGzCcL5g?autoplay=1&mute=1&playsinline=1",
   "verified": true,
   "last_ok": "2026-07-18T21:02:40+00:00"
  },
  {
   "id": "e818924bfac1",
   "name": "Rhodes Mandraki Marina Webcam - Greece 🎦",
   "country": "GR",
   "lat": 36.43556,
   "lon": 28.22199,
   "environment": "harbor",
   "scene": "harbor",
   "type": "youtube",
   "video_id": "k8ZgLw6kBCA",
   "embed": "https://www.youtube.com/embed/k8ZgLw6kBCA?autoplay=1&mute=1&playsinline=1",
   "verified": true,
   "last_ok": "2026-07-18T21:02:40+00:00"
  },
  {
   "id": "82d1a787942d",
   "name": "Aerial Tour of Georgetown, SC - Live Beaches",
   "country": "GY",
   "lat": 6.8013,
   "lon": -58.1553,
   "environment": "urban",
   "scene": "city",
   "type": "youtube",
   "video_id": "JaaOQfpqV_I",
   "embed": "https://www.youtube.com/embed/JaaOQfpqV_I?autoplay=1&mute=1&playsinline=1",
   "verified": true,
   "last_ok": "2026-07-18T21:02:40+00:00"
  },
  {
   "id": "1ea1cb936cf3",
   "name": "ATCS Tasikmalaya — Batas Kota Arah Bandung",
   "country": "ID",
   "lat": -7.33086,
   "lon": 108.21619,
   "environment": "traffic",
   "scene": "traffic",
   "type": "hls",
   "src": "https://atcs.tasikmalayakota.go.id/camera/bataskotaarahbandung.m3u8",
   "verified": true,
   "last_ok": "2026-07-18T21:02:40+00:00"
  },
  {
   "id": "1d6fb62716a1",
   "name": "ATCS Tasikmalaya — Karang Resik",
   "country": "ID",
   "lat": -7.3272,
   "lon": 108.22574,
   "environment": "traffic",
   "scene": "traffic",
   "type": "hls",
   "src": "https://atcs.tasikmalayakota.go.id/camera/bataskotaciamis.m3u8",
   "verified": true,
   "last_ok": "2026-07-18T21:02:40+00:00"
  },
  {
   "id": "24352554f7fd",
   "name": "ATCS Tasikmalaya — Ruas M. Hatta",
   "country": "ID",
   "lat": -7.32073,
   "lon": 108.22302,
   "environment": "traffic",
   "scene": "traffic",
   "type": "hls",
   "src": "https://atcs.tasikmalayakota.go.id/camera/mhatta.m3u8",
   "verified": true,
   "last_ok": "2026-07-18T21:02:40+00:00"
  },
  {
   "id": "48823a483aa9",
   "name": "ATCS Tasikmalaya — Simpang Alun-alun Arah Sutisna Senjaya",
   "country": "ID",
   "lat": -7.33526,
   "lon": 108.21394,
   "environment": "traffic",
   "scene": "traffic",
   "type": "hls",
   "src": "https://atcs.tasikmalayakota.go.id/camera/alunalunarahsutsen.m3u8",
   "verified": true,
   "last_ok": "2026-07-18T21:02:40+00:00"
  },
  {
   "id": "ae62ff7cd5d3",
   "name": "ATCS Tasikmalaya — Simpang Alun-alun Arah Tentara Pelajar",
   "country": "ID",
   "lat": -7.32488,
   "lon": 108.21339,
   "environment": "traffic",
   "scene": "traffic",
   "type": "hls",
   "src": "https://atcs.tasikmalayakota.go.id/camera/alunalunarahtentarapelajar.m3u8",
   "verified": true,
   "last_ok": "2026-07-18T21:02:40+00:00"
  },
  {
   "id": "b389c117b140",
   "name": "ATCS Tasikmalaya — Simpang Bantar",
   "country": "ID",
   "lat": -7.32777,
   "lon": 108.22297,
   "environment": "traffic",
   "scene": "traffic",
   "type": "hls",
   "src": "https://atcs.tasikmalayakota.go.id/camera/bantar.m3u8",
   "verified": true,
   "last_ok": "2026-07-18T21:02:40+00:00"
  },
  {
   "id": "8e2caf9e1b39",
   "name": "ATCS Tasikmalaya — Simpang Bojong Jengkol Arah Wasita Kusuma",
   "country": "ID",
   "lat": -7.31854,
   "lon": 108.21724,
   "environment": "traffic",
   "scene": "traffic",
   "type": "hls",
   "src": "https://atcs.tasikmalayakota.go.id/camera/bojongjengkolarahwasita.m3u8",
   "verified": true,
   "last_ok": "2026-07-18T21:02:40+00:00"
  },
  {
   "id": "eece871b3d6c",
   "name": "ATCS Tasikmalaya — Simpang Cibogor Arah Ciamis",
   "country": "ID",
   "lat": -7.3363,
   "lon": 108.2181,
   "environment": "traffic",
   "scene": "traffic",
   "type": "hls",
   "src": "https://atcs.tasikmalayakota.go.id/camera/cibogorarahciamis.m3u8",
   "verified": true,
   "last_ok": "2026-07-18T21:02:40+00:00"
  },
  {
   "id": "4252829c0f3b",
   "name": "ATCS Tasikmalaya — Simpang Cibogor Arah M. Hatta",
   "country": "ID",
   "lat": -7.33334,
   "lon": 108.22344,
   "environment": "traffic",
   "scene": "traffic",
   "type": "hls",
   "src": "https://atcs.tasikmalayakota.go.id/camera/cibogorarahmhatta.m3u8",
   "verified": true,
   "last_ok": "2026-07-18T21:02:40+00:00"
  },
  {
   "id": "c9328b585c77",
   "name": "ATCS Tasikmalaya — Simpang Cibogor Arah Sutisna Senjaya",
   "country": "ID",
   "lat": -7.32287,
   "lon": 108.2263,
   "environment": "traffic",
   "scene": "traffic",
   "type": "hls",
   "src": "https://atcs.tasikmalayakota.go.id/camera/cibogorarahsutsen.m3u8",
   "verified": true,
   "last_ok": "2026-07-18T21:02:40+00:00"
  },
  {
   "id": "8c4ba58947ee",
   "name": "ATCS Tasikmalaya — Simpang Cihideung",
   "country": "ID",
   "lat": -7.33398,
   "lon": 108.22656,
   "environment": "traffic",
   "scene": "traffic",
   "type": "hls",
   "src": "https://atcs.tasikmalayakota.go.id/camera/cihideung.m3u8",
   "verified": true,
   "last_ok": "2026-07-18T21:02:40+00:00"
  },
  {
   "id": "7f7b05304f73",
   "name": "ATCS Tasikmalaya — Simpang Gunung Sabeulah",
   "country": "ID",
   "lat": -7.32437,
   "lon": 108.22208,
   "environment": "traffic",
   "scene": "traffic",
   "type": "hls",
   "src": "https://atcs.tasikmalayakota.go.id/camera/gunungsabeulah.m3u8",
   "verified": true,
   "last_ok": "2026-07-18T21:02:40+00:00"
  },
  {
   "id": "90a830778610",
   "name": "ATCS Tasikmalaya — Simpang Leuwidahu Arah Bojong Jengkol",
   "country": "ID",
   "lat": -7.32697,
   "lon": 108.22932,
   "environment": "traffic",
   "scene": "traffic",
   "type": "hls",
   "src": "https://atcs.tasikmalayakota.go.id/camera/leuwidahuarahjati.m3u8",
   "verified": true,
   "last_ok": "2026-07-18T21:02:40+00:00"
  },
  {
   "id": "2197178dd036",
   "name": "ATCS Tasikmalaya — Simpang Leuwidahu Arah Jati",
   "country": "ID",
   "lat": -7.32391,
   "lon": 108.22164,
   "environment": "traffic",
   "scene": "traffic",
   "type": "hls",
   "src": "https://atcs.tasikmalayakota.go.id/camera/leuwidahuarahbojongjengkol.m3u8",
   "verified": true,
   "last_ok": "2026-07-18T21:02:40+00:00"
  },
  {
   "id": "ecb7ea2fab88",
   "name": "ATCS Tasikmalaya — Simpang Lima",
   "country": "ID",
   "lat": -7.32836,
   "lon": 108.2129,
   "environment": "traffic",
   "scene": "traffic",
   "type": "hls",
   "src": "https://atcs.tasikmalayakota.go.id/camera/simpanglima.m3u8",
   "verified": true,
   "last_ok": "2026-07-18T21:02:40+00:00"
  },
  {
   "id": "240acec27170",
   "name": "ATCS Tasikmalaya — Simpang Masjid Agung",
   "country": "ID",
   "lat": -7.33136,
   "lon": 108.22986,
   "environment": "traffic",
   "scene": "traffic",
   "type": "hls",
   "src": "https://atcs.tasikmalayakota.go.id/camera/masjidagungptz.m3u8",
   "verified": true,
   "last_ok": "2026-07-18T21:02:40+00:00"
  },
  {
   "id": "721bf1377c52",
   "name": "ATCS Tasikmalaya — Simpang Masjid Agung Arah Gedung Dakwah",
   "country": "ID",
   "lat": -7.31953,
   "lon": 108.21342,
   "environment": "traffic",
   "scene": "traffic",
   "type": "hls",
   "src": "https://atcs.tasikmalayakota.go.id/camera/masjidagungarahgedungdakwah.m3u8",
   "verified": true,
   "last_ok": "2026-07-18T21:02:40+00:00"
  },
  {
   "id": "74b0184fd2bf",
   "name": "ATCS Tasikmalaya — Simpang Panyerutan FIX",
   "country": "ID",
   "lat": -7.31883,
   "lon": 108.22748,
   "environment": "traffic",
   "scene": "traffic",
   "type": "hls",
   "src": "https://atcs.tasikmalayakota.go.id/camera/panyerutanarahnagarawangi.m3u8",
   "verified": true,
   "last_ok": "2026-07-18T21:02:40+00:00"
  },
  {
   "id": "d8b8df1eca5d",
   "name": "ATCS Tasikmalaya — Simpang Panyerutan PTZ",
   "country": "ID",
   "lat": -7.31973,
   "lon": 108.22831,
   "environment": "traffic",
   "scene": "traffic",
   "type": "hls",
   "src": "https://atcs.tasikmalayakota.go.id/camera/panyerutanptz.m3u8",
   "verified": true,
   "last_ok": "2026-07-18T21:02:40+00:00"
  },
  {
   "id": "28b6d12e94f0",
   "name": "ATCS Tasikmalaya — Simpang Paseh",
   "country": "ID",
   "lat": -7.31998,
   "lon": 108.22987,
   "environment": "traffic",
   "scene": "traffic",
   "type": "hls",
   "src": "https://atcs.tasikmalayakota.go.id/camera/pasehptz.m3u8",
   "verified": true,
   "last_ok": "2026-07-18T21:02:40+00:00"
  },
  {
   "id": "15e303642742",
   "name": "ATCS Tasikmalaya — Simpang Pataruman FIX",
   "country": "ID",
   "lat": -7.31975,
   "lon": 108.21451,
   "environment": "traffic",
   "scene": "traffic",
   "type": "hls",
   "src": "https://atcs.tasikmalayakota.go.id/camera/patarumanarahnagarawangi.m3u8",
   "verified": true,
   "last_ok": "2026-07-18T21:02:40+00:00"
  },
  {
   "id": "64a63e80f0be",
   "name": "ATCS Tasikmalaya — Simpang Pataruman PTZ",
   "country": "ID",
   "lat": -7.33624,
   "lon": 108.22198,
   "environment": "traffic",
   "scene": "traffic",
   "type": "hls",
   "src": "https://atcs.tasikmalayakota.go.id/camera/patarumanptz.m3u8",
   "verified": true,
   "last_ok": "2026-07-18T21:02:40+00:00"
  },
  {
   "id": "bfdfc223625c",
   "name": "ATCS Tasikmalaya — Simpang Rancabango Arah Letnan Harun",
   "country": "ID",
   "lat": -7.31811,
   "lon": 108.22576,
   "environment": "traffic",
   "scene": "traffic",
   "type": "hls",
   "src": "https://atcs.tasikmalayakota.go.id/camera/rancabangoarahletnanharun.m3u8",
   "verified": true,
   "last_ok": "2026-07-18T21:02:40+00:00"
  },
  {
   "id": "49f5ea48374b",
   "name": "ATCS Tasikmalaya — Simpang Rancabango Arah Simpang Bantar",
   "country": "ID",
   "lat": -7.33515,
   "lon": 108.22521,
   "environment": "traffic",
   "scene": "traffic",
   "type": "hls",
   "src": "https://atcs.tasikmalayakota.go.id/camera/rancabangoptz.m3u8",
   "verified": true,
   "last_ok": "2026-07-18T21:02:40+00:00"
  },
  {
   "id": "a72728354239",
   "name": "ATCS Tasikmalaya — Simpang Rumah Sakit",
   "country": "ID",
   "lat": -7.33363,
   "lon": 108.21099,
   "environment": "traffic",
   "scene": "traffic",
   "type": "hls",
   "src": "https://atcs.tasikmalayakota.go.id/camera/rumahsakit.m3u8",
   "verified": true,
   "last_ok": "2026-07-18T21:02:40+00:00"
  },
  {
   "id": "b50e36bae64e",
   "name": "ATCS Tasikmalaya — Simpang Sutisna Senjaya",
   "country": "ID",
   "lat": -7.32413,
   "lon": 108.21864,
   "environment": "traffic",
   "scene": "traffic",
   "type": "hls",
   "src": "https://atcs.tasikmalayakota.go.id/camera/sutisnasenjaya.m3u8",
   "verified": true,
   "last_ok": "2026-07-18T21:02:40+00:00"
  },
  {
   "id": "6c3dc8dab48a",
   "name": "ATCS Tasikmalaya — Simpang Wasita Kusuma Arah Bandung",
   "country": "ID",
   "lat": -7.32725,
   "lon": 108.2192,
   "environment": "traffic",
   "scene": "traffic",
   "type": "hls",
   "src": "https://atcs.tasikmalayakota.go.id/camera/wasitakusumaarahbandung.m3u8",
   "verified": true,
   "last_ok": "2026-07-18T21:02:40+00:00"
  },
  {
   "id": "68094cb53a6d",
   "name": "ATCS Tasikmalaya — Simpang Wasita Kusuma Arah Bojong Jengkol",
   "country": "ID",
   "lat": -7.32189,
   "lon": 108.22509,
   "environment": "traffic",
   "scene": "traffic",
   "type": "hls",
   "src": "https://atcs.tasikmalayakota.go.id/camera/wasitakusumaarahbojongjengkol.m3u8",
   "verified": true,
   "last_ok": "2026-07-18T21:02:40+00:00"
  },
  {
   "id": "7a830d607298",
   "name": "ATCS Tasikmalaya — Simpang Wasita Kusuma Arah Letnan Harun",
   "country": "ID",
   "lat": -7.32596,
   "lon": 108.22379,
   "environment": "traffic",
   "scene": "traffic",
   "type": "hls",
   "src": "https://atcs.tasikmalayakota.go.id/camera/wasitakusumaarahletnanharun.m3u8",
   "verified": true,
   "last_ok": "2026-07-18T21:02:40+00:00"
  },
  {
   "id": "3e23e34170fd",
   "name": "ATCS Tasikmalaya — Taman Alun Alun",
   "country": "ID",
   "lat": -7.33025,
   "lon": 108.21194,
   "environment": "traffic",
   "scene": "traffic",
   "type": "hls",
   "src": "https://atcs.tasikmalayakota.go.id/camera/alunalunptz.m3u8",
   "verified": true,
   "last_ok": "2026-07-18T21:02:40+00:00"
  },
  {
   "id": "ce86cafe007d",
   "name": "ATCS Tasikmalaya — Taman Kota (Batu Andesit) Arah HZ Mustofa",
   "country": "ID",
   "lat": -7.3346,
   "lon": 108.21766,
   "environment": "traffic",
   "scene": "traffic",
   "type": "hls",
   "src": "https://atcs.tasikmalayakota.go.id/camera/tamankota.m3u8",
   "verified": true,
   "last_ok": "2026-07-18T21:02:40+00:00"
  },
  {
   "id": "eb9f11fa5045",
   "name": "ID - Banten - IC TUNJUNGTEJA",
   "country": "ID",
   "lat": -6.346,
   "lon": 106.154,
   "environment": "traffic",
   "scene": "traffic",
   "type": "hls",
   "src": "https://cctv.wikaserangpanimbang.com/camera/bearer/tiod/1/17/index.m3u8",
   "verified": true,
   "last_ok": "2026-07-18T21:02:40+00:00"
  },
  {
   "id": "5c7c861ce1a2",
   "name": "ID - Banten - MR 65+900",
   "country": "ID",
   "lat": -6.345,
   "lon": 106.157,
   "environment": "traffic",
   "scene": "traffic",
   "type": "hls",
   "src": "https://cctv.wikaserangpanimbang.com/camera/bearer/tiod/1/3/index.m3u8",
   "verified": true,
   "last_ok": "2026-07-18T21:02:40+00:00"
  },
  {
   "id": "f246c6d20f96",
   "name": "ID - Banten - MR 74+400",
   "country": "ID",
   "lat": -6.337,
   "lon": 106.165,
   "environment": "traffic",
   "scene": "traffic",
   "type": "hls",
   "src": "https://cctv.wikaserangpanimbang.com/camera/bearer/tiod/1/7/index.m3u8",
   "verified": true,
   "last_ok": "2026-07-18T21:02:40+00:00"
  },
  {
   "id": "8277d3fbea11",
   "name": "ID - Banten - MR 75+500",
   "country": "ID",
   "lat": -6.334,
   "lon": 106.166,
   "environment": "traffic",
   "scene": "traffic",
   "type": "hls",
   "src": "https://cctv.wikaserangpanimbang.com/camera/bearer/tiod/1/8/index.m3u8",
   "verified": true,
   "last_ok": "2026-07-18T21:02:40+00:00"
  },
  {
   "id": "39fc08fc4077",
   "name": "ID - Banten - MR 81+200",
   "country": "ID",
   "lat": -6.33,
   "lon": 106.17,
   "environment": "traffic",
   "scene": "traffic",
   "type": "hls",
   "src": "https://cctv.wikaserangpanimbang.com/camera/bearer/tiod/1/14/index.m3u8",
   "verified": true,
   "last_ok": "2026-07-18T21:02:40+00:00"
  },
  {
   "id": "b5255fb88078",
   "name": "ID - Banten - MR 89+900",
   "country": "ID",
   "lat": -6.325,
   "lon": 106.177,
   "environment": "traffic",
   "scene": "traffic",
   "type": "hls",
   "src": "https://cctv.wikaserangpanimbang.com/camera/bearer/tiod/1/22/index.m3u8",
   "verified": true,
   "last_ok": "2026-07-18T21:02:40+00:00"
  },
  {
   "id": "9cba43b8a888",
   "name": "ID - Banten - ON RAMP WALANTAKA",
   "country": "ID",
   "lat": -6.321,
   "lon": 106.181,
   "environment": "traffic",
   "scene": "traffic",
   "type": "hls",
   "src": "https://cctv.wikaserangpanimbang.com/camera/bearer/tiod/1/1/index.m3u8",
   "verified": true,
   "last_ok": "2026-07-18T21:02:40+00:00"
  },
  {
   "id": "8b7d97bee2e8",
   "name": "ID - Banten - Tangerang - 12+750 A",
   "country": "ID",
   "lat": -6.32,
   "lon": 106.48,
   "environment": "traffic",
   "scene": "traffic",
   "type": "hls",
   "src": "https://info.serbaraja-tollroad.co.id:20443/LiveApp/streams/10019.m3u8",
   "verified": true,
   "last_ok": "2026-07-18T21:02:40+00:00"
  },
  {
   "id": "81e789b99ff9",
   "name": "ID - Banten - Tangerang - 13+200 A",
   "country": "ID",
   "lat": -6.315,
   "lon": 106.487,
   "environment": "traffic",
   "scene": "traffic",
   "type": "hls",
   "src": "https://info.serbaraja-tollroad.co.id:20443/LiveApp/streams/10003.m3u8",
   "verified": true,
   "last_ok": "2026-07-18T21:02:40+00:00"
  },
  {
   "id": "41bd54aa8903",
   "name": "ID - Banten - Tangerang - 13+700 B",
   "country": "ID",
   "lat": -6.308,
   "lon": 106.492,
   "environment": "traffic",
   "scene": "traffic",
   "type": "hls",
   "src": "https://info.serbaraja-tollroad.co.id:20443/LiveApp/streams/10006.m3u8",
   "verified": true,
   "last_ok": "2026-07-18T21:02:40+00:00"
  },
  {
   "id": "aa6dd0789f96",
   "name": "ID - Banten - Tangerang - 14+700 A",
   "country": "ID",
   "lat": -6.303,
   "lon": 106.499,
   "environment": "traffic",
   "scene": "traffic",
   "type": "hls",
   "src": "https://info.serbaraja-tollroad.co.id:20443/LiveApp/streams/10009.m3u8",
   "verified": true,
   "last_ok": "2026-07-18T21:02:40+00:00"
  },
  {
   "id": "9f4ebf8733fc",
   "name": "ID - Banten - Tangerang - 15+200 B",
   "country": "ID",
   "lat": -6.296,
   "lon": 106.504,
   "environment": "traffic",
   "scene": "traffic",
   "type": "hls",
   "src": "https://info.serbaraja-tollroad.co.id:20443/LiveApp/streams/10012.m3u8",
   "verified": true,
   "last_ok": "2026-07-18T21:02:40+00:00"
  },
  {
   "id": "8278a478ae0c",
   "name": "ID - Banten - Tangerang - 16+100 A",
   "country": "ID",
   "lat": -6.291,
   "lon": 106.511,
   "environment": "traffic",
   "scene": "traffic",
   "type": "hls",
   "src": "https://info.serbaraja-tollroad.co.id:20443/LiveApp/streams/10015.m3u8",
   "verified": true,
   "last_ok": "2026-07-18T21:02:40+00:00"
  },
  {
   "id": "cc690f5e6057",
   "name": "ID - Banten - Tangerang - 16+650 B",
   "country": "ID",
   "lat": -6.284,
   "lon": 106.516,
   "environment": "traffic",
   "scene": "traffic",
   "type": "hls",
   "src": "https://info.serbaraja-tollroad.co.id:20443/LiveApp/streams/10018.m3u8",
   "verified": true,
   "last_ok": "2026-07-18T21:02:40+00:00"
  },
  {
   "id": "f003b080410e",
   "name": "ID - Banten - Tangerang - Cikupa Kedaton 1",
   "country": "ID",
   "lat": -6.20384,
   "lon": 106.52236,
   "environment": "traffic",
   "scene": "traffic",
   "type": "hls",
   "src": "https://cctv-dishub.tangerangkab.go.id/storage/video/01jsnyfnzs6e5818bdsed2jppp/01jsnyfnzs6e5818bdsed2jppp.m3u8",
   "verified": true,
   "last_ok": "2026-07-18T21:02:40+00:00"
  },
  {
   "id": "a35cc57b9201",
   "name": "ID - Banten - Tangerang - GT BSD Timur 1",
   "country": "ID",
   "lat": -6.28,
   "lon": 106.52,
   "environment": "traffic",
   "scene": "traffic",
   "type": "hls",
   "src": "https://info.serbaraja-tollroad.co.id:20443/LiveApp/streams/10025.m3u8",
   "verified": true,
   "last_ok": "2026-07-18T21:02:40+00:00"
  },
  {
   "id": "bb38b7452f08",
   "name": "ID - Banten - Tangerang - Jalan Akses On Ramp BSD Timur 1 On Ramp",
   "country": "ID",
   "lat": -6.276,
   "lon": 106.524,
   "environment": "traffic",
   "scene": "traffic",
   "type": "hls",
   "src": "https://info.serbaraja-tollroad.co.id:20443/LiveApp/streams/10021.m3u8",
   "verified": true,
   "last_ok": "2026-07-18T21:02:40+00:00"
  },
  {
   "id": "5e7b2dfca958",
   "name": "ID - Banten - Tangerang - Jayanti 1 Arah Serang",
   "country": "ID",
   "lat": -6.20659,
   "lon": 106.37423,
   "environment": "traffic",
   "scene": "traffic",
   "type": "hls",
   "src": "https://cctv-dishub.tangerangkab.go.id/storage/video/01jsnyfnzn18d0ca1m7p4ctvx1/01jsnyfnzn18d0ca1m7p4ctvx1.m3u8",
   "verified": true,
   "last_ok": "2026-07-18T21:02:40+00:00"
  },
  {
   "id": "1bc8e8ac9d13",
   "name": "ID - Banten - Tangerang - Jl. Pantura Bitung 1",
   "country": "ID",
   "lat": -6.22283,
   "lon": 106.55995,
   "environment": "traffic",
   "scene": "traffic",
   "type": "hls",
   "src": "https://cctv-dishub.tangerangkab.go.id/storage/video/01jzvqtpxmrvd9pcbbsh2jq61q/01jzvqtpxmrvd9pcbbsh2jq61q.m3u8",
   "verified": true,
   "last_ok": "2026-07-18T21:02:40+00:00"
  },
  {
   "id": "e13ea7551032",
   "name": "ID - Banten - Tangerang - Jl.Pemda Tigaraksa",
   "country": "ID",
   "lat": -6.22657,
   "lon": 106.50548,
   "environment": "traffic",
   "scene": "traffic",
   "type": "hls",
   "src": "https://cctv-dishub.tangerangkab.go.id/storage/video/01jzvpeyhgex8qb9j5h2dct3a7/01jzvpeyhgex8qb9j5h2dct3a7.m3u8",
   "verified": true,
   "last_ok": "2026-07-18T21:02:40+00:00"
  },
  {
   "id": "1f98ff7e63b0",
   "name": "ID - Banten - Tangerang - Kecamatan Mauk",
   "country": "ID",
   "lat": -6.0581,
   "lon": 106.51221,
   "environment": "traffic",
   "scene": "traffic",
   "type": "hls",
   "src": "https://cctv-dishub.tangerangkab.go.id/storage/video/01jzvqax0cms7wh04jqhw61t3r/01jzvqax0cms7wh04jqhw61t3r.m3u8",
   "verified": true,
   "last_ok": "2026-07-18T21:02:40+00:00"
  },
  {
   "id": "95d47f08893f",
   "name": "ID - Banten - Tangerang - Pemda Tigaraksa",
   "country": "ID",
   "lat": -6.27118,
   "lon": 106.4844,
   "environment": "traffic",
   "scene": "traffic",
   "type": "hls",
   "src": "https://cctv-dishub.tangerangkab.go.id/storage/video/01jsrev0qphd8m3v37rqf1xf9y/01jsrev0qphd8m3v37rqf1xf9y.m3u8",
   "verified": true,
   "last_ok": "2026-07-18T21:02:40+00:00"
  },
  {
   "id": "c9e80075cf68",
   "name": "ID - Banten - Tangerang - Simpang Adiyasa 1",
   "country": "ID",
   "lat": -6.32625,
   "lon": 106.41829,
   "environment": "traffic",
   "scene": "traffic",
   "type": "hls",
   "src": "https://cctv-dishub.tangerangkab.go.id/storage/video/01jsrefb2z1e8y217vqdn6q60f/01jsrefb2z1e8y217vqdn6q60f.m3u8",
   "verified": true,
   "last_ok": "2026-07-18T21:02:40+00:00"
  },
  {
   "id": "d0b48d3659c4",
   "name": "ID - Banten - Tangerang - Simpang Bugel Tigaraksa",
   "country": "ID",
   "lat": -6.26189,
   "lon": 106.4838,
   "environment": "traffic",
   "scene": "traffic",
   "type": "hls",
   "src": "https://cctv-dishub.tangerangkab.go.id/storage/video/01k4mapmw669p23ks3dkpkb066/01k4mapmw669p23ks3dkpkb066.m3u8",
   "verified": true,
   "last_ok": "2026-07-18T21:02:40+00:00"
  },
  {
   "id": "db28c5919bfb",
   "name": "ID - Banten - Tangerang - Simpang Dadap 1",
   "country": "ID",
   "lat": -6.09238,
   "lon": 106.70851,
   "environment": "traffic",
   "scene": "traffic",
   "type": "hls",
   "src": "https://cctv-dishub.tangerangkab.go.id/storage/video/01jsrcpqn62mej02bc0h565epz/01jsrcpqn62mej02bc0h565epz.m3u8",
   "verified": true,
   "last_ok": "2026-07-18T21:02:40+00:00"
  },
  {
   "id": "b1159f114491",
   "name": "ID - Banten - Tangerang - Simpang Islamic 1",
   "country": "ID",
   "lat": -6.22883,
   "lon": 106.61564,
   "environment": "traffic",
   "scene": "traffic",
   "type": "hls",
   "src": "https://cctv-dishub.tangerangkab.go.id/storage/video/01jsrc5g3cz9wsb0305zte4h04/01jsrc5g3cz9wsb0305zte4h04.m3u8",
   "verified": true,
   "last_ok": "2026-07-18T21:02:40+00:00"
  },
  {
   "id": "f7e00a3e6a33",
   "name": "ID - Banten - Tangerang - Simpang Legok 1",
   "country": "ID",
   "lat": -6.32828,
   "lon": 106.57712,
   "environment": "traffic",
   "scene": "traffic",
   "type": "hls",
   "src": "https://cctv-dishub.tangerangkab.go.id/storage/video/01jsrdvkp3ssgqrtemf8kn8gv6/01jsrdvkp3ssgqrtemf8kn8gv6.m3u8",
   "verified": true,
   "last_ok": "2026-07-18T21:02:40+00:00"
  },
  {
   "id": "d7ab8adb2135",
   "name": "ID - Banten - Tangerang - Simpang Pasar Kemis 1",
   "country": "ID",
   "lat": -6.17054,
   "lon": 106.5306,
   "environment": "traffic",
   "scene": "traffic",
   "type": "hls",
   "src": "https://cctv-dishub.tangerangkab.go.id/storage/video/01jsr0t8vyed4mcezqccqfngha/01jsr0t8vyed4mcezqccqfngha.m3u8",
   "verified": true,
   "last_ok": "2026-07-18T21:02:40+00:00"
  },
  {
   "id": "2b013b5d5c8d",
   "name": "ID - Banten - Tangerang - Simpang Rajeg Kukun 1",
   "country": "ID",
   "lat": -6.12961,
   "lon": 106.52664,
   "environment": "traffic",
   "scene": "traffic",
   "type": "hls",
   "src": "https://cctv-dishub.tangerangkab.go.id/storage/video/01jsr079n4btzjemf6r9br473w/01jsr079n4btzjemf6r9br473w.m3u8",
   "verified": true,
   "last_ok": "2026-07-18T21:02:40+00:00"
  },
  {
   "id": "4bb4f2d45acb",
   "name": "ID - Banten - Tangerang - Simpang Sepatan 1",
   "country": "ID",
   "lat": -6.11887,
   "lon": 106.57561,
   "environment": "traffic",
   "scene": "traffic",
   "type": "hls",
   "src": "https://cctv-dishub.tangerangkab.go.id/storage/video/01jsr485tfw1cwwa1v6c3jpgfd/01jsr485tfw1cwwa1v6c3jpgfd.m3u8",
   "verified": true,
   "last_ok": "2026-07-18T21:02:40+00:00"
  },
  {
   "id": "a4dde17e8a7a",
   "name": "ID - DI Yogyakarta - Bantul - Bendung Klegen",
   "country": "ID",
   "lat": -7.95323,
   "lon": 110.32568,
   "environment": "traffic",
   "scene": "traffic",
   "type": "hls",
   "src": "https://stream.bantulkab.go.id/memfs/a293d997-0258-4317-ac84-0b1bc4abf14c.m3u8",
   "verified": true,
   "last_ok": "2026-07-18T21:02:40+00:00"
  },
  {
   "id": "bd0a3ac3bd43",
   "name": "ID - DI Yogyakarta - Bantul - Bendung Merdiko Niten",
   "country": "ID",
   "lat": -7.83984,
   "lon": 110.34818,
   "environment": "traffic",
   "scene": "traffic",
   "type": "hls",
   "src": "https://stream.bantulkab.go.id/memfs/803b3df5-f009-4b2a-8984-be6618cf9f54.m3u8",
   "verified": true,
   "last_ok": "2026-07-18T21:02:40+00:00"
  },
  {
   "id": "935f90e4819d",
   "name": "ID - DI Yogyakarta - Yogyakarta - Depan DPRD Pos Security",
   "country": "ID",
   "lat": -7.79706,
   "lon": 110.39234,
   "environment": "traffic",
   "scene": "traffic",
   "type": "hls",
   "src": "https://cctvjss.jogjakota.go.id/dprd-kota/depan-dprd-pos-security.stream/playlist.m3u8",
   "verified": true,
   "last_ok": "2026-07-18T21:02:40+00:00"
  },
  {
   "id": "e9f98c5f6b83",
   "name": "ID - DI Yogyakarta - Yogyakarta - Gerbang Masuk Utara V. Timur (Luar)",
   "country": "ID",
   "lat": -7.79926,
   "lon": 110.39086,
   "environment": "traffic",
   "scene": "traffic",
   "type": "hls",
   "src": "https://cctvjss.jogjakota.go.id/balaikota/Balaikota_Gerbang_Masuk_Utara_View_Timur-Luar.stream/playlist.m3u8",
   "verified": true,
   "last_ok": "2026-07-18T21:02:40+00:00"
  },
  {
   "id": "85126b340348",
   "name": "ID - DI Yogyakarta - Yogyakarta - Gerbang Timur PKK V. Selatan (Luar)",
   "country": "ID",
   "lat": -7.80052,
   "lon": 110.39218,
   "environment": "traffic",
   "scene": "traffic",
   "type": "hls",
   "src": "https://cctvjss.jogjakota.go.id/balaikota/Balaikota_Gerbang_Timur_PKK_View_Selatan-Luar.stream/playlist.m3u8",
   "verified": true,
   "last_ok": "2026-07-18T21:02:40+00:00"
  },
  {
   "id": "27309be6a698",
   "name": "ID - DI Yogyakarta - Yogyakarta - Jl. Ahmad Jazuli (Apotek K24)",
   "country": "ID",
   "lat": -7.78919,
   "lon": 110.36967,
   "environment": "traffic",
   "scene": "traffic",
   "type": "hls",
   "src": "https://cctvjss.jogjakota.go.id/kotabaru/ANPR-Jl-Ahmad-Jazuli.stream/playlist.m3u8",
   "verified": true,
   "last_ok": "2026-07-18T21:02:40+00:00"
  },
  {
   "id": "860d26c36fb9",
   "name": "ID - DI Yogyakarta - Yogyakarta - Jl. F.M. Noto (Gardu ANIEM)",
   "country": "ID",
   "lat": -7.78683,
   "lon": 110.37217,
   "environment": "traffic",
   "scene": "traffic",
   "type": "hls",
   "src": "https://cctvjss.jogjakota.go.id/kotabaru/ANPR-Jl-FM-Noto-Gardu-Aniem.stream/playlist.m3u8",
   "verified": true,
   "last_ok": "2026-07-18T21:02:40+00:00"
  },
  {
   "id": "dbd2f701688a",
   "name": "ID - DI Yogyakarta - Yogyakarta - Jl. Juadi (Pojok Utara-Barat Telkom)",
   "country": "ID",
   "lat": -7.78582,
   "lon": 110.37457,
   "environment": "traffic",
   "scene": "traffic",
   "type": "hls",
   "src": "https://cctvjss.jogjakota.go.id/kotabaru/Jl-Juadi.stream/playlist.m3u8",
   "verified": true,
   "last_ok": "2026-07-18T21:02:40+00:00"
  },
  {
   "id": "bf8ea3b1b9dc",
   "name": "ID - DI Yogyakarta - Yogyakarta - Jl. KH. Ahmad Dahlan V. Barat (Barat Kospin Jasa)",
   "country": "ID",
   "lat": -7.80115,
   "lon": 110.361,
   "environment": "traffic",
   "scene": "traffic",
   "type": "hls",
   "src": "https://cctvjss.jogjakota.go.id/tps-liar/S3_Nyai_Ahmad_Dahlan.stream/playlist.m3u8",
   "verified": true,
   "last_ok": "2026-07-18T21:02:40+00:00"
  },
  {
   "id": "62653b141b7b",
   "name": "ID - DI Yogyakarta - Yogyakarta - Jl. Kenari V. Barat (Timur SMKN 6)",
   "country": "ID",
   "lat": -7.79726,
   "lon": 110.38264,
   "environment": "traffic",
   "scene": "traffic",
   "type": "hls",
   "src": "https://cctvjss.jogjakota.go.id/tps-liar/Jalan_Kenari.stream/playlist.m3u8",
   "verified": true,
   "last_ok": "2026-07-18T21:02:40+00:00"
  },
  {
   "id": "40e68ddd780d",
   "name": "ID - DI Yogyakarta - Yogyakarta - Jl. MT. Haryono V. Barat (Barat Hotel Ashtary)",
   "country": "ID",
   "lat": -7.81348,
   "lon": 110.35969,
   "environment": "traffic",
   "scene": "traffic",
   "type": "hls",
   "src": "https://cctvjss.jogjakota.go.id/tps-liar/Jalan_MT_Haryono.stream/playlist.m3u8",
   "verified": true,
   "last_ok": "2026-07-18T21:02:40+00:00"
  },
  {
   "id": "574bdebcc00d",
   "name": "ID - DI Yogyakarta - Yogyakarta - Jl. Mas Suharto V. Selatan (Depan LASERCOM)",
   "country": "ID",
   "lat": -7.7932,
   "lon": 110.37106,
   "environment": "traffic",
   "scene": "traffic",
   "type": "hls",
   "src": "https://cctvjss.jogjakota.go.id/tps-liar/S3_Jl_Mas Suharto-Jl_Tegalpanggung.stream/playlist.m3u8",
   "verified": true,
   "last_ok": "2026-07-18T21:02:40+00:00"
  },
  {
   "id": "ad6e64f36c58",
   "name": "ID - DI Yogyakarta - Yogyakarta - Jl. Mas Suharto V. Utara (Barat Sari Wangi Parfum)",
   "country": "ID",
   "lat": -7.79325,
   "lon": 110.37159,
   "environment": "traffic",
   "scene": "traffic",
   "type": "hls",
   "src": "https://cctvjss.jogjakota.go.id/tps-liar/S3_Jl_Mas Suharto-Jl_Tukangan.stream/playlist.m3u8",
   "verified": true,
   "last_ok": "2026-07-18T21:02:40+00:00"
  },
  {
   "id": "a1a7ad42608a",
   "name": "ID - DI Yogyakarta - Yogyakarta - Jl. Nyoman Oka (Gereja Kotabaru)",
   "country": "ID",
   "lat": -7.7879,
   "lon": 110.37133,
   "environment": "traffic",
   "scene": "traffic",
   "type": "hls",
   "src": "https://cctvjss.jogjakota.go.id/kotabaru/Jl-Nyoman-Oka.stream/playlist.m3u8",
   "verified": true,
   "last_ok": "2026-07-18T21:02:40+00:00"
  },
  {
   "id": "606f52b1a49d",
   "name": "ID - DI Yogyakarta - Yogyakarta - Jl. Wardhani (Selatan-Timur SMPN 5)",
   "country": "ID",
   "lat": -7.78732,
   "lon": 110.37538,
   "environment": "traffic",
   "scene": "traffic",
   "type": "hls",
   "src": "https://cctvjss.jogjakota.go.id/kotabaru/ANPR-Jl-Wardhani.stream/playlist.m3u8",
   "verified": true,
   "last_ok": "2026-07-18T21:02:40+00:00"
  },
  {
   "id": "4c14ec2d2d41",
   "name": "ID - DI Yogyakarta - Yogyakarta - Jl. Yos Sudarso (Mie Gacoan)",
   "country": "ID",
   "lat": -7.78816,
   "lon": 110.37492,
   "environment": "traffic",
   "scene": "traffic",
   "type": "hls",
   "src": "https://cctvjss.jogjakota.go.id/kotabaru/ANPR-Jl-Yos-Sudarso.stream/playlist.m3u8",
   "verified": true,
   "last_ok": "2026-07-18T21:02:40+00:00"
  },
  {
   "id": "c434d2c1f986",
   "name": "ID - DI Yogyakarta - Yogyakarta - KemMJ-Jalan Selatan Kemantren",
   "country": "ID",
   "lat": -7.82077,
   "lon": 110.3617,
   "environment": "traffic",
   "scene": "traffic",
   "type": "hls",
   "src": "https://cctvjss.jogjakota.go.id/kecamatan/KemMJ-JalanSelatanKemantren.stream/playlist.m3u8",
   "verified": true,
   "last_ok": "2026-07-18T21:02:40+00:00"
  },
  {
   "id": "2c8beae0022f",
   "name": "ID - DI Yogyakarta - Yogyakarta - KemNG-Wahid Hasyim V. Selatan",
   "country": "ID",
   "lat": -7.80601,
   "lon": 110.356,
   "environment": "traffic",
   "scene": "traffic",
   "type": "hls",
   "src": "https://cctvjss.jogjakota.go.id/kecamatan/KemNG-Wahid_Hasyim_V_Selatan.stream/playlist.m3u8",
   "verified": true,
   "last_ok": "2026-07-18T21:02:40+00:00"
  },
  {
   "id": "605ff7c23ca4",
   "name": "ID - DI Yogyakarta - Yogyakarta - Malioboro_Selatan_Teteg",
   "country": "ID",
   "lat": -7.78997,
   "lon": 110.36603,
   "environment": "traffic",
   "scene": "traffic",
   "type": "hls",
   "src": "https://cctvjss.jogjakota.go.id/malioboro/Malioboro_1_Selatan_Teteg.stream/playlist.m3u8",
   "verified": true,
   "last_ok": "2026-07-18T21:02:40+00:00"
  },
  {
   "id": "ec59b8584361",
   "name": "ID - DI Yogyakarta - Yogyakarta - Malioboro_Terang_Bulan",
   "country": "ID",
   "lat": -7.79589,
   "lon": 110.3654,
   "environment": "traffic",
   "scene": "traffic",
   "type": "hls",
   "src": "https://cctvjss.jogjakota.go.id/malioboro/Malioboro_11_Terang_Bulan.stream/playlist.m3u8",
   "verified": true,
   "last_ok": "2026-07-18T21:02:40+00:00"
  },
  {
   "id": "3f7536f0786f",
   "name": "ID - DI Yogyakarta - Yogyakarta - Malioboro_Utara_Inna_Malioboro",
   "country": "ID",
   "lat": -7.7902,
   "lon": 110.36625,
   "environment": "traffic",
   "scene": "traffic",
   "type": "hls",
   "src": "https://cctvjss.jogjakota.go.id/malioboro/Malioboro_21_Utara_Inna_Malioboro.stream/playlist.m3u8",
   "verified": true,
   "last_ok": "2026-07-18T21:02:40+00:00"
  },
  {
   "id": "80917b2e1ff7",
   "name": "ID - DI Yogyakarta - Yogyakarta - Nol Km. - Gd. Agung",
   "country": "ID",
   "lat": -7.80103,
   "lon": 110.36495,
   "environment": "traffic",
   "scene": "traffic",
   "type": "hls",
   "src": "https://cctvjss.jogjakota.go.id/malioboro/NolKm_GdAgung.stream/playlist.m3u8",
   "verified": true,
   "last_ok": "2026-07-18T21:02:40+00:00"
  },
  {
   "id": "5323b488f155",
   "name": "ID - DI Yogyakarta - Yogyakarta - Optic Tugu",
   "country": "ID",
   "lat": -7.78761,
   "lon": 110.36636,
   "environment": "traffic",
   "scene": "traffic",
   "type": "hls",
   "src": "https://cctvjss.jogjakota.go.id/margo-utomo/Optic-Tugu.stream/playlist.m3u8",
   "verified": true,
   "last_ok": "2026-07-18T21:02:40+00:00"
  },
  {
   "id": "5cfe9ee08f41",
   "name": "ID - DI Yogyakarta - Yogyakarta - Parkiran Ngabean",
   "country": "ID",
   "lat": -7.8013,
   "lon": 110.35624,
   "environment": "traffic",
   "scene": "traffic",
   "type": "hls",
   "src": "https://cctvjss.jogjakota.go.id/atcs/ATCS_Parkiran_Ngabean.stream/playlist.m3u8",
   "verified": true,
   "last_ok": "2026-07-18T21:02:40+00:00"
  },
  {
   "id": "2d1c0d7aca7d",
   "name": "ID - DI Yogyakarta - Yogyakarta - Pasar Demangan View Selatan",
   "country": "ID",
   "lat": -7.78094,
   "lon": 110.38818,
   "environment": "traffic",
   "scene": "traffic",
   "type": "hls",
   "src": "https://cctvjss.jogjakota.go.id/atcs/ATCS_Pasar_Demangan_View_Selatan.stream/playlist.m3u8",
   "verified": true,
   "last_ok": "2026-07-18T21:02:40+00:00"
  },
  {
   "id": "6bf6a4efa5c1",
   "name": "ID - DI Yogyakarta - Yogyakarta - RTHP Brontokusuman (blkg Kel) 1",
   "country": "ID",
   "lat": -7.82298,
   "lon": 110.36959,
   "environment": "traffic",
   "scene": "traffic",
   "type": "hls",
   "src": "https://cctvjss.jogjakota.go.id/rthp/rthp_brontokusuman_blkgKel_1.stream/playlist.m3u8",
   "verified": true,
   "last_ok": "2026-07-18T21:02:40+00:00"
  },
  {
   "id": "9a6807c27788",
   "name": "ID - DI Yogyakarta - Yogyakarta - RTHP Bumen",
   "country": "ID",
   "lat": -7.8265,
   "lon": 110.40352,
   "environment": "traffic",
   "scene": "traffic",
   "type": "hls",
   "src": "https://cctvjss.jogjakota.go.id/rthp/rthp_bumen.stream/playlist.m3u8",
   "verified": true,
   "last_ok": "2026-07-18T21:02:40+00:00"
  },
  {
   "id": "7f4932119ea2",
   "name": "ID - DI Yogyakarta - Yogyakarta - RTHP Gajah Wong Edu Park 1",
   "country": "ID",
   "lat": -7.81749,
   "lon": 110.39348,
   "environment": "traffic",
   "scene": "traffic",
   "type": "hls",
   "src": "https://cctvjss.jogjakota.go.id/rthp/rthp_gajahwong_edupark_1.stream/playlist.m3u8",
   "verified": true,
   "last_ok": "2026-07-18T21:02:40+00:00"
  },
  {
   "id": "e977aaffe26c",
   "name": "ID - DI Yogyakarta - Yogyakarta - RTHP Jopraban 1",
   "country": "ID",
   "lat": -7.80272,
   "lon": 110.35153,
   "environment": "traffic",
   "scene": "traffic",
   "type": "hls",
   "src": "https://cctvjss.jogjakota.go.id/rthp/rthp_jopraban_1.stream/playlist.m3u8",
   "verified": true,
   "last_ok": "2026-07-18T21:02:40+00:00"
  },
  {
   "id": "16db76b0e21f",
   "name": "ID - DI Yogyakarta - Yogyakarta - RTHP Klitren 2",
   "country": "ID",
   "lat": -7.78075,
   "lon": 110.38662,
   "environment": "traffic",
   "scene": "traffic",
   "type": "hls",
   "src": "https://cctvjss.jogjakota.go.id/rthp/rthp_klitren_2.stream/playlist.m3u8",
   "verified": true,
   "last_ok": "2026-07-18T21:02:40+00:00"
  },
  {
   "id": "db1862efce95",
   "name": "ID - DI Yogyakarta - Yogyakarta - RTHP Segoro Amarto Tegalrejo 2",
   "country": "ID",
   "lat": -7.79045,
   "lon": 110.34969,
   "environment": "traffic",
   "scene": "traffic",
   "type": "hls",
   "src": "https://cctvjss.jogjakota.go.id/rthp/rthp_segoro_amarto_tegalrejo_2.stream/playlist.m3u8",
   "verified": true,
   "last_ok": "2026-07-18T21:02:40+00:00"
  },
  {
   "id": "dd8ae88e9326",
   "name": "ID - DI Yogyakarta - Yogyakarta - RTHP Semaki  1",
   "country": "ID",
   "lat": -7.80101,
   "lon": 110.38486,
   "environment": "traffic",
   "scene": "traffic",
   "type": "hls",
   "src": "https://cctvjss.jogjakota.go.id/rthp/rthp_semaki_1.stream/playlist.m3u8",
   "verified": true,
   "last_ok": "2026-07-18T21:02:40+00:00"
  },
  {
   "id": "d83d7503ad49",
   "name": "ID - DI Yogyakarta - Yogyakarta - Simpang APMD (PTZ)",
   "country": "ID",
   "lat": -7.79197,
   "lon": 110.39164,
   "environment": "traffic",
   "scene": "traffic",
   "type": "hls",
   "src": "https://cctvjss.jogjakota.go.id/atcs/ATCS_apmd.stream/playlist.m3u8",
   "verified": true,
   "last_ok": "2026-07-18T21:02:40+00:00"
  },
  {
   "id": "2a4b2f1a1e29",
   "name": "ID - DI Yogyakarta - Yogyakarta - Simpang APPI - JL.Mentri Supeno",
   "country": "ID",
   "lat": -7.81617,
   "lon": 110.38319,
   "environment": "traffic",
   "scene": "traffic",
   "type": "hls",
   "src": "https://cctvjss.jogjakota.go.id/atcs/ATCS_Lampu_Merah_JlMentriSupeno.stream/playlist.m3u8",
   "verified": true,
   "last_ok": "2026-07-18T21:02:40+00:00"
  },
  {
   "id": "25d5626949ee",
   "name": "ID - DI Yogyakarta - Yogyakarta - Simpang Amongrogo View Timur",
   "country": "ID",
   "lat": -7.7974,
   "lon": 110.38367,
   "environment": "traffic",
   "scene": "traffic",
   "type": "hls",
   "src": "https://cctvjss.jogjakota.go.id/atcs/ATCS_Simpang_Amongrogo_View_Timur.stream/playlist.m3u8",
   "verified": true,
   "last_ok": "2026-07-18T21:02:40+00:00"
  },
  {
   "id": "79bfa356c46d",
   "name": "ID - DI Yogyakarta - Yogyakarta - Simpang Atmosukarto (PTZ)",
   "country": "ID",
   "lat": -7.78826,
   "lon": 110.37833,
   "environment": "traffic",
   "scene": "traffic",
   "type": "hls",
   "src": "https://cctvjss.jogjakota.go.id/atcs/ATCS_Simpang_Atmosukarto.stream/playlist.m3u8",
   "verified": true,
   "last_ok": "2026-07-18T21:02:40+00:00"
  },