{
 "generated_at": "2026-07-16T03:24:19+00:00",
 "source": "https://raw.githubusercontent.com/willytop8/Live-Environment-Streams/main/streams.geojson",
 "count": 2743,
 "by_type": {
  "youtube": 28,
  "hls": 2715
 },
 "webcams": [
  {
   "id": "e515fc89da51",
   "name": "AR - Buenos Aires - Ostende - La Rambla (Ostende)",
   "country": "AR",
   "lat": -37.138,
   "lon": -56.865,
   "environment": "coastal",
   "scene": "beach",
   "type": "hls",
   "src": "https://wowza.telpin.com.ar:1935/camara-rambla/smil:camara-rambla.smil/playlist.m3u8",
   "verified": true,
   "last_ok": "2026-07-16T03:24:19+00:00"
  },
  {
   "id": "520d99d13082",
   "name": "AR - Buenos Aires - Pinamar - Bunge y Libertador (Pinamar)",
   "country": "AR",
   "lat": -37.1081,
   "lon": -56.8598,
   "environment": "traffic",
   "scene": "traffic",
   "type": "hls",
   "src": "https://wowza.telpin.com.ar:1935/camara-fuente/smil:camara-fuente.smil/playlist.m3u8",
   "verified": true,
   "last_ok": "2026-07-16T03:24:19+00:00"
  },
  {
   "id": "482bd321db4e",
   "name": "AR - Buenos Aires - Pinamar - Bunge y el Mar - Domo (Pinamar)",
   "country": "AR",
   "lat": -37.1083,
   "lon": -56.8472,
   "environment": "coastal",
   "scene": "beach",
   "type": "hls",
   "src": "https://wowza.telpin.com.ar:1935/camara-bypdomo/smil:camara-bypdomo.smil/playlist.m3u8",
   "verified": true,
   "last_ok": "2026-07-16T03:24:19+00:00"
  },
  {
   "id": "d79b519e7115",
   "name": "AR - Buenos Aires - Pinamar - Muelle (Pinamar Pier)",
   "country": "AR",
   "lat": -37.11,
   "lon": -56.8455,
   "environment": "coastal",
   "scene": "beach",
   "type": "hls",
   "src": "https://wowza.telpin.com.ar:1935/camara-muelle/muelle.stream_720p/playlist.m3u8",
   "verified": true,
   "last_ok": "2026-07-16T03:24:19+00:00"
  },
  {
   "id": "f5e11130133d",
   "name": "AR - Buenos Aires - Pinamar - Playas del Norte - Botavara (Pinamar)",
   "country": "AR",
   "lat": -37.095,
   "lon": -56.848,
   "environment": "coastal",
   "scene": "beach",
   "type": "hls",
   "src": "https://wowza.telpin.com.ar:1935/camara-botavara/smil:camara-botavara.smil/playlist.m3u8",
   "verified": true,
   "last_ok": "2026-07-16T03:24:19+00:00"
  },
  {
   "id": "c4bf763d95a4",
   "name": "Holzgau",
   "country": "AT",
   "lat": 47.2602,
   "lon": 10.34403,
   "environment": "urban",
   "scene": "city",
   "type": "hls",
   "src": "https://h057.video-stream-hosting.de/tourismusverbandlechtal-rtplive/_definst_/mp4:camera3.stream/chunklist_w1581120379.m3u8",
   "verified": true,
   "last_ok": "2026-07-16T03:24:19+00:00"
  },
  {
   "id": "d19d92737172",
   "name": "Burleigh Beach Webcam - Australia 🎦",
   "country": "AU",
   "lat": -25.0,
   "lon": 135.0,
   "environment": "coastal",
   "scene": "beach",
   "type": "hls",
   "src": "https://d1nm4r8e5x1rwd.cloudfront.net/cw/burleighheadscamera.stream/playlist.m3u8",
   "verified": true,
   "last_ok": "2026-07-16T03:24:19+00:00"
  },
  {
   "id": "4bcd0f00626e",
   "name": "Currumbin Beach Webcam - Australia 🎦",
   "country": "AU",
   "lat": -28.13649,
   "lon": 153.48158,
   "environment": "coastal",
   "scene": "beach",
   "type": "hls",
   "src": "https://d1nm4r8e5x1rwd.cloudfront.net/cw/currumbincamera.stream/playlist.m3u8",
   "verified": true,
   "last_ok": "2026-07-16T03:24:19+00:00"
  },
  {
   "id": "d54e9916e4e6",
   "name": "Narrowneck - Gold Coast beach Webcam - Australia 🎦",
   "country": "AU",
   "lat": -25.0,
   "lon": 135.0,
   "environment": "coastal",
   "scene": "beach",
   "type": "hls",
   "src": "https://d1nm4r8e5x1rwd.cloudfront.net/cw/narrowneckhighcamera.stream/playlist.m3u8",
   "verified": true,
   "last_ok": "2026-07-16T03:24:19+00:00"
  },
  {
   "id": "cb2f75e4353e",
   "name": "Surfers Paradise Beach Webcam - Australia 🎦",
   "country": "AU",
   "lat": -28.00274,
   "lon": 153.43,
   "environment": "coastal",
   "scene": "beach",
   "type": "hls",
   "src": "https://d1nm4r8e5x1rwd.cloudfront.net/cw/surfersparadisecamera.stream/playlist.m3u8",
   "verified": true,
   "last_ok": "2026-07-16T03:24:19+00:00"
  },
  {
   "id": "85450998ccc3",
   "name": "Bridgetown Hastings Beach Barbados",
   "country": "BB",
   "lat": 13.0746,
   "lon": -59.5969,
   "environment": "coastal",
   "scene": "beach",
   "type": "hls",
   "src": "https://stream.iwcpinc.com/IWCP_NCC/_definst_/NCC_Hastings_2.stream/playlist.m3u8",
   "verified": true,
   "last_ok": "2026-07-16T03:24:19+00:00"
  },
  {
   "id": "84c9aa7f4896",
   "name": "Paynes Bay - St James Barbados",
   "country": "BB",
   "lat": 13.15814,
   "lon": -59.63574,
   "environment": "coastal",
   "scene": "beach",
   "type": "hls",
   "src": "https://stream.iwcpinc.com/IWCP_BEACH/_definst_/Paynes_Bay_1_Beachview.stream/playlist.m3u8",
   "verified": true,
   "last_ok": "2026-07-16T03:24:19+00:00"
  },
  {
   "id": "efa024b23c6d",
   "name": "BR - SP - Amparo - SP360 km 110 - Constancio Cintra, Engenheiro",
   "country": "BR",
   "lat": -22.84104,
   "lon": -46.77371,
   "environment": "traffic",
   "scene": "traffic",
   "type": "hls",
   "src": "https://34.104.32.249.nip.io/SP360-KM110/stream.m3u8",
   "verified": true,
   "last_ok": "2026-07-16T03:24:19+00:00"
  },
  {
   "id": "53ec71ce9166",
   "name": "BR - SP - Bertioga - SP055 km 193 - Doutor Manoel Hyppolito Rego",
   "country": "BR",
   "lat": -23.75781,
   "lon": -45.86433,
   "environment": "traffic",
   "scene": "traffic",
   "type": "hls",
   "src": "https://34.104.32.249.nip.io/SP055-KM193/stream.m3u8",
   "verified": true,
   "last_ok": "2026-07-16T03:24:19+00:00"
  },
  {
   "id": "ca611eabe361",
   "name": "BR - SP - Bertioga - SP055 km 211 - Doutor Manoel Hyppolito Rego",
   "country": "BR",
   "lat": -23.78714,
   "lon": -46.02699,
   "environment": "traffic",
   "scene": "traffic",
   "type": "hls",
   "src": "https://34.104.32.249.nip.io/SP055-KM211A/stream.m3u8",
   "verified": true,
   "last_ok": "2026-07-16T03:24:19+00:00"
  },
  {
   "id": "dbb74c946fa4",
   "name": "BR - SP - Bertioga - SP055 km 211 - Doutor Manoel Hyppolito Rego",
   "country": "BR",
   "lat": -23.78714,
   "lon": -46.02699,
   "environment": "traffic",
   "scene": "traffic",
   "type": "hls",
   "src": "https://34.104.32.249.nip.io/SP055-KM211B/stream.m3u8",
   "verified": true,
   "last_ok": "2026-07-16T03:24:19+00:00"
  },
  {
   "id": "ff01f14f6cda",
   "name": "BR - SP - Bragança Paulista - SP008 km 95 - Pedro Astenori Mariagliani (Capitão)",
   "country": "BR",
   "lat": -22.92558,
   "lon": -46.55291,
   "environment": "traffic",
   "scene": "traffic",
   "type": "hls",
   "src": "https://34.104.32.249.nip.io/SP008-KM095/stream.m3u8",
   "verified": true,
   "last_ok": "2026-07-16T03:24:19+00:00"
  },
  {
   "id": "8b1c474c2009",
   "name": "BR - SP - Campos do Jordão - SP123 km 46 - Floriano Rodrigues Pinheiro",
   "country": "BR",
   "lat": -22.75612,
   "lon": -45.61024,
   "environment": "traffic",
   "scene": "traffic",
   "type": "hls",
   "src": "https://34.104.32.249.nip.io/SP123-KM046/stream.m3u8",
   "verified": true,
   "last_ok": "2026-07-16T03:24:19+00:00"
  },
  {
   "id": "ef3c2f211e49",
   "name": "BR - SP - Caraguatatuba - SP055 km 110,8 - Doutor Manoel Hyppolito Rego",
   "country": "BR",
   "lat": -23.69799,
   "lon": -45.43953,
   "environment": "traffic",
   "scene": "traffic",
   "type": "hls",
   "src": "https://34.104.32.249.nip.io/SP055-KM110A/stream.m3u8",
   "verified": true,
   "last_ok": "2026-07-16T03:24:19+00:00"
  },
  {
   "id": "59f47f2e46c7",
   "name": "BR - SP - Caraguatatuba - SP055 km 110,8 - Doutor Manoel Hyppolito Rego",
   "country": "BR",
   "lat": -23.69799,
   "lon": -45.43953,
   "environment": "traffic",
   "scene": "traffic",
   "type": "hls",
   "src": "https://34.104.32.249.nip.io/SP055-KM110B/stream.m3u8",
   "verified": true,
   "last_ok": "2026-07-16T03:24:19+00:00"
  },
  {
   "id": "057da43d35ed",
   "name": "BR - SP - Caraguatatuba - SP055 km 83,5 - Doutor Manoel Hyppolito Rego",
   "country": "BR",
   "lat": -23.56631,
   "lon": -45.27933,
   "environment": "traffic",
   "scene": "traffic",
   "type": "hls",
   "src": "https://34.104.32.249.nip.io/SP055-KM083/stream.m3u8",
   "verified": true,
   "last_ok": "2026-07-16T03:24:19+00:00"
  },
  {
   "id": "82e0792e5f10",
   "name": "BR - SP - Caraguatatuba - SP055 km 92,5 - Doutor Manoel Hyppolito Rego",
   "country": "BR",
   "lat": -23.60139,
   "lon": -45.34492,
   "environment": "traffic",
   "scene": "traffic",
   "type": "hls",
   "src": "https://34.104.32.249.nip.io/SP055-KM092/stream.m3u8",
   "verified": true,
   "last_ok": "2026-07-16T03:24:19+00:00"
  },
  {
   "id": "cd6ec45a2b3e",
   "name": "BR - SP - Itatiba - SP063 km 28 - Alkindar Monteiro Junqueira",
   "country": "BR",
   "lat": -22.97714,
   "lon": -46.77103,
   "environment": "traffic",
   "scene": "traffic",
   "type": "hls",
   "src": "https://34.104.32.249.nip.io/SP063-KM028/stream.m3u8",
   "verified": true,
   "last_ok": "2026-07-16T03:24:19+00:00"
  },
  {
   "id": "2da08279b9c0",
   "name": "BR - SP - Jarinu - SP354 km 75,4 - Edgard Máximo Zambotto",
   "country": "BR",
   "lat": -23.07926,
   "lon": -46.70074,
   "environment": "traffic",
   "scene": "traffic",
   "type": "hls",
   "src": "https://34.104.32.249.nip.io/SP354-KM075/stream.m3u8",
   "verified": true,
   "last_ok": "2026-07-16T03:24:19+00:00"
  },
  {
   "id": "c831927af131",
   "name": "BR - SP - Pindamonhangaba - SP123 km 26,5 - Floriano Rodrigues Pinheiro",
   "country": "BR",
   "lat": -22.86396,
   "lon": -45.60252,
   "environment": "traffic",
   "scene": "traffic",
   "type": "hls",
   "src": "https://34.104.32.249.nip.io/SP123-KM026B/stream.m3u8",
   "verified": true,
   "last_ok": "2026-07-16T03:24:19+00:00"
  },
  {
   "id": "2ba45346da91",
   "name": "BR - SP - Pindamonhangaba - SP123 km 31 - Floriano Rodrigues Pinheiro",
   "country": "BR",
   "lat": -22.84614,
   "lon": -45.61556,
   "environment": "traffic",
   "scene": "traffic",
   "type": "hls",
   "src": "https://34.104.32.249.nip.io/SP123-KM031A/stream.m3u8",
   "verified": true,
   "last_ok": "2026-07-16T03:24:19+00:00"
  },
  {
   "id": "e1ac8eb16984",
   "name": "BR - SP - Pindamonhangaba - SP123 km 31 - Floriano Rodrigues Pinheiro",
   "country": "BR",
   "lat": -22.84614,
   "lon": -45.61556,
   "environment": "traffic",
   "scene": "traffic",
   "type": "hls",
   "src": "https://34.104.32.249.nip.io/SP123-KM031B/stream.m3u8",
   "verified": true,
   "last_ok": "2026-07-16T03:24:19+00:00"
  },
  {
   "id": "9067ad90047f",
   "name": "BR - SP - Piracicaba - SP304 km 157 - Luiz de Queiroz",
   "country": "BR",
   "lat": -22.72241,
   "lon": -47.59989,
   "environment": "traffic",
   "scene": "traffic",
   "type": "hls",
   "src": "https://34.104.32.249.nip.io/SP304-KM157/stream.m3u8",
   "verified": true,
   "last_ok": "2026-07-16T03:24:19+00:00"
  },
  {
   "id": "d9952836eb8d",
   "name": "BR - SP - Praça de Pedágio de Itupeva - SP324 km 81 - Miguel Melhado Campos",
   "country": "BR",
   "lat": -23.05663,
   "lon": -47.0413,
   "environment": "traffic",
   "scene": "traffic",
   "type": "hls",
   "src": "https://34.104.32.249.nip.io/SP324-KM081/stream.m3u8",
   "verified": true,
   "last_ok": "2026-07-16T03:24:19+00:00"
  },
  {
   "id": "aab364290cc6",
   "name": "BR - SP - Santo Antônio do Pinhal - SP046 km 167 - Oswaldo Barbosa Guisadi",
   "country": "BR",
   "lat": -22.83048,
   "lon": -45.62527,
   "environment": "traffic",
   "scene": "traffic",
   "type": "hls",
   "src": "https://34.104.32.249.nip.io/SP046-KM167/stream.m3u8",
   "verified": true,
   "last_ok": "2026-07-16T03:24:19+00:00"
  },
  {
   "id": "15a74f386cf1",
   "name": "BR - SP - Santo Antônio do Pinhal - SP123 km 33 - Floriano Rodrigues Pinheiro",
   "country": "BR",
   "lat": -22.83032,
   "lon": -45.62487,
   "environment": "traffic",
   "scene": "traffic",
   "type": "hls",
   "src": "https://34.104.32.249.nip.io/SP123-KM033A/stream.m3u8",
   "verified": true,
   "last_ok": "2026-07-16T03:24:19+00:00"
  },
  {
   "id": "f2e3555665dd",
   "name": "BR - SP - São Luís do Paraitinga - SP125 km 42 - Oswaldo Cruz",
   "country": "BR",
   "lat": -23.22821,
   "lon": -45.31395,
   "environment": "traffic",
   "scene": "traffic",
   "type": "hls",
   "src": "https://34.104.32.249.nip.io/SP125-KM042/stream.m3u8",
   "verified": true,
   "last_ok": "2026-07-16T03:24:19+00:00"
  },
  {
   "id": "5f80c913c939",
   "name": "BR - SP - São Luís do Paraitinga - SP125 km 67 - Oswaldo Cruz",
   "country": "BR",
   "lat": -23.35981,
   "lon": -45.20268,
   "environment": "traffic",
   "scene": "traffic",
   "type": "hls",
   "src": "https://34.104.32.249.nip.io/SP125-KM067/stream.m3u8",
   "verified": true,
   "last_ok": "2026-07-16T03:24:19+00:00"
  },
  {
   "id": "ac225bed293e",
   "name": "BR - SP - São Sebastião - SP055 km 136 - Doutor Manoel Hyppolito Rego",
   "country": "BR",
   "lat": -23.81863,
   "lon": -45.45649,
   "environment": "traffic",
   "scene": "traffic",
   "type": "hls",
   "src": "https://34.104.32.249.nip.io/SP055-KM136/stream.m3u8",
   "verified": true,
   "last_ok": "2026-07-16T03:24:19+00:00"
  },
  {
   "id": "301cb1858cc6",
   "name": "BR - SP - São Sebastião - SP055 km 168 - Doutor Manoel Hyppolito Rego",
   "country": "BR",
   "lat": -23.76329,
   "lon": -45.65583,
   "environment": "traffic",
   "scene": "traffic",
   "type": "hls",
   "src": "https://34.104.32.249.nip.io/SP055-KM168/stream.m3u8",
   "verified": true,
   "last_ok": "2026-07-16T03:24:19+00:00"
  },
  {
   "id": "85be9805a8eb",
   "name": "BR - SP - Taubaté - SP123 km 8 - Floriano Rodrigues Pinheiro",
   "country": "BR",
   "lat": -22.99179,
   "lon": -45.64512,
   "environment": "traffic",
   "scene": "traffic",
   "type": "hls",
   "src": "https://34.104.32.249.nip.io/SP123-KM008/stream.m3u8",
   "verified": true,
   "last_ok": "2026-07-16T03:24:19+00:00"
  },
  {
   "id": "d85d598cfe25",
   "name": "BR - SP - Taubaté - SP125 km 21 - Oswaldo Cruz",
   "country": "BR",
   "lat": -23.19124,
   "lon": -45.4589,
   "environment": "traffic",
   "scene": "traffic",
   "type": "hls",
   "src": "https://34.104.32.249.nip.io/SP125-KM022/stream.m3u8",
   "verified": true,
   "last_ok": "2026-07-16T03:24:19+00:00"
  },
  {
   "id": "da4334aedc90",
   "name": "BR - SP - Ubatuba - SP055 km 55 - Doutor Manoel Hyppolito Rego",
   "country": "BR",
   "lat": -23.47217,
   "lon": -45.06703,
   "environment": "traffic",
   "scene": "traffic",
   "type": "hls",
   "src": "https://34.104.32.249.nip.io/SP055-KM055/stream.m3u8",
   "verified": true,
   "last_ok": "2026-07-16T03:24:19+00:00"
  },
  {
   "id": "c30a69ce493c",
   "name": "BR - SP - Ubatuba - SP055 km 73 - Doutor Manoel Hyppolito Rego",
   "country": "BR",
   "lat": -23.51826,
   "lon": -45.20068,
   "environment": "traffic",
   "scene": "traffic",
   "type": "hls",
   "src": "https://34.104.32.249.nip.io/SP055-KM073/stream.m3u8",
   "verified": true,
   "last_ok": "2026-07-16T03:24:19+00:00"
  },
  {
   "id": "1d793642a31a",
   "name": "BR - SP - Ubatuba - SP125 km 81 - Oswaldo Cruz",
   "country": "BR",
   "lat": -23.36634,
   "lon": -45.12547,
   "environment": "traffic",
   "scene": "traffic",
   "type": "hls",
   "src": "https://34.104.32.249.nip.io/SP125-KM081/stream.m3u8",
   "verified": true,
   "last_ok": "2026-07-16T03:24:19+00:00"
  },
  {
   "id": "b1fd28c96fdc",
   "name": "BR - SP - Ubatuba - SP125 km 88 - Oswaldo Cruz",
   "country": "BR",
   "lat": -23.40703,
   "lon": -45.1173,
   "environment": "traffic",
   "scene": "traffic",
   "type": "hls",
   "src": "https://34.104.32.249.nip.io/SP125-KM088A/stream.m3u8",
   "verified": true,
   "last_ok": "2026-07-16T03:24:19+00:00"
  },
  {
   "id": "a9d93db53138",
   "name": "BR - SP - Ubatuba - SP125 km 93 - Oswaldo Cruz",
   "country": "BR",
   "lat": -23.4374,
   "lon": -45.09635,
   "environment": "traffic",
   "scene": "traffic",
   "type": "hls",
   "src": "https://34.104.32.249.nip.io/SP125-KM093B/stream.m3u8",
   "verified": true,
   "last_ok": "2026-07-16T03:24:19+00:00"
  },
  {
   "id": "3a74e63dd237",
   "name": "BR - SP - Ubatuba - SP125 km 93 - Oswaldo Cruz",
   "country": "BR",
   "lat": -23.4374,
   "lon": -45.09635,
   "environment": "traffic",
   "scene": "traffic",
   "type": "hls",
   "src": "https://34.104.32.249.nip.io/SP125-KM093A/stream.m3u8",
   "verified": true,
   "last_ok": "2026-07-16T03:24:19+00:00"
  },
  {
   "id": "68de2bac6c68",
   "name": "Cascavel center",
   "country": "BR",
   "lat": -24.95583,
   "lon": -53.45528,
   "environment": "urban",
   "scene": "city",
   "type": "hls",
   "src": "https://edge04.balticlivecam.com/blc/p_BR_Cascavel_centro/index.m3u8?token=a043933602f1f648255226ece2271cff%3A1775689146307",
   "verified": false,
   "last_ok": null
  },
  {
   "id": "d61966b6bd56",
   "name": "Celebration Square Webcam - Canada 🎦",
   "country": "CA",
   "lat": 43.5789,
   "lon": -79.6583,
   "environment": "urban",
   "scene": "city",
   "type": "hls",
   "src": "https://webvideo.mississauga.ca/StageWebcam/LiveStageWebcam.stream-audiodestin/playlist.m3u8",
   "verified": true,
   "last_ok": "2026-07-16T03:24:19+00:00"
  },
  {
   "id": "e422ed4e91fe",
   "name": "Mississauga Celebration Square",
   "country": "CA",
   "lat": 43.58805,
   "lon": -79.64279,
   "environment": "urban",
   "scene": "city",
   "type": "hls",
   "src": "https://webvideo.mississauga.ca/BalconyWebcam/LiveWebcam.stream/chunklist_w1473770124.m3u8",
   "verified": true,
   "last_ok": "2026-07-16T03:24:19+00:00"
  },
  {
   "id": "e24834be9133",
   "name": "CZ - Boží Dar - Boží Dar - radnice",
   "country": "CZ",
   "lat": 50.4097,
   "lon": 12.9245,
   "environment": "traffic",
   "scene": "traffic",
   "type": "hls",
   "src": "https://kamery3.wolfnet.cz/bozi_dar.m3u8",
   "verified": true,
   "last_ok": "2026-07-16T03:24:19+00:00"
  },
  {
   "id": "478627d35dda",
   "name": "CZ - Boží Dar - Boží vyhlídka #1",
   "country": "CZ",
   "lat": 50.4055,
   "lon": 12.927,
   "environment": "traffic",
   "scene": "traffic",
   "type": "hls",
   "src": "https://kamery2.wolfnet.cz/bozi_vyhlidka1.m3u8",
   "verified": true,
   "last_ok": "2026-07-16T03:24:19+00:00"
  },
  {
   "id": "cf61cfbb0f8e",
   "name": "CZ - Karlovy Vary - TV Krušná",
   "country": "CZ",
   "lat": 50.253,
   "lon": 12.865,
   "environment": "traffic",
   "scene": "traffic",
   "type": "hls",
   "src": "https://kamery2.wolfnet.cz/krusna.m3u8",
   "verified": true,
   "last_ok": "2026-07-16T03:24:19+00:00"
  },
  {
   "id": "66092844e4cf",
   "name": "CZ - Karlovy Vary - TV Panorama",
   "country": "CZ",
   "lat": 50.2319,
   "lon": 12.8712,
   "environment": "traffic",
   "scene": "traffic",
   "type": "hls",
   "src": "https://kamery2.wolfnet.cz/panorama.m3u8",
   "verified": true,
   "last_ok": "2026-07-16T03:24:19+00:00"
  },
  {
   "id": "da304537b398",
   "name": "CZ - Loučná pod Klínovcem - Klínovec - otočná #1",
   "country": "CZ",
   "lat": 50.4023,
   "lon": 12.9738,
   "environment": "traffic",
   "scene": "traffic",
   "type": "hls",
   "src": "https://kamery2.wolfnet.cz/Klinovec_1.m3u8",
   "verified": true,
   "last_ok": "2026-07-16T03:24:19+00:00"
  },
  {
   "id": "43b1224863cb",
   "name": "CZ - Sokolov - Sokolov - otočná kamera",
   "country": "CZ",
   "lat": 50.1813,
   "lon": 12.6401,
   "environment": "traffic",
   "scene": "traffic",
   "type": "hls",
   "src": "https://kamery3.wolfnet.cz/sokolov-otocna.m3u8",
   "verified": true,
   "last_ok": "2026-07-16T03:24:19+00:00"
  },
  {
   "id": "d81e24ed864e",
   "name": "Kadaň castle",
   "country": "CZ",
   "lat": 50.38333,
   "lon": 13.26667,
   "environment": "urban",
   "scene": "city",
   "type": "hls",
   "src": "https://edge01.balticlivecam.com/blc/p_CZ_Kadan_castle/index.m3u8?token=0364adb1bd4324b3757384f7a94529b3%3A1775689191568",
   "verified": false,
   "last_ok": null
  },
  {
   "id": "d09354a1a22f",
   "name": "Rokytnice nad Jizerou town view",
   "country": "CZ",
   "lat": 50.72561,
   "lon": 15.43357,
   "environment": "urban",
   "scene": "city",
   "type": "hls",
   "src": "https://edge01.balticlivecam.com/blc/p_CZ_Rokytnice_nad_Jizerou/index.m3u8?token=0a302b1db67a67eb421bd7391ee3f211%3A1775689197167",
   "verified": false,
   "last_ok": null
  },
  {
   "id": "e377373b55bd",
   "name": "The Grömitz Coast Webcam - Germany 🎦",
   "country": "DE",
   "lat": 54.15052,
   "lon": 10.96011,
   "environment": "coastal",
   "scene": "beach",
   "type": "hls",
   "src": "https://osl9.lvstrm.de/hls/stream.m3u8",
   "verified": true,
   "last_ok": "2026-07-16T03:24:19+00:00"
  },
  {
   "id": "cbe4e5d5edb6",
   "name": "Freedom Square",
   "country": "EE",
   "lat": 59.43696,
   "lon": 24.75353,
   "environment": "landmark",
   "scene": "landmark",
   "type": "hls",
   "src": "https://edge01.balticlivecam.com/blc/NewTallin/index.m3u8?token=ed056a31d930583217c72ddfd747fdf6:1779762757746",
   "verified": false,
   "last_ok": null
  },
  {
   "id": "9ac6462f0b26",
   "name": "Narva",
   "country": "EE",
   "lat": 59.37722,
   "lon": 28.19028,
   "environment": "urban",
   "scene": "city",
   "type": "hls",
   "src": "https://edge01.balticlivecam.com/blc/narva/index.m3u8?token=189736e604715b638e244485f0d22c2a%3A1775689217698",
   "verified": false,
   "last_ok": null
  },
  {
   "id": "dd756c8c261c",
   "name": "Narva Castle and Ivangorod Fortress",
   "country": "EE",
   "lat": 59.37722,
   "lon": 28.19028,
   "environment": "urban",
   "scene": "city",
   "type": "hls",
   "src": "https://edge01.balticlivecam.com/blc/narvaPils/index.m3u8?token=8437821d3ed4206edad475193d56448a%3A1775689216257",
   "verified": false,
   "last_ok": null
  },
  {
   "id": "5b2892d09907",
   "name": "Narva-Jõesuu",
   "country": "EE",
   "lat": 59.45889,
   "lon": 28.04083,
   "environment": "coastal",
   "scene": "beach",
   "type": "hls",
   "src": "https://edge01.balticlivecam.com/blc/narvFoscam/index.m3u8?token=561d59f5da866612a00555d55deeb9fc:1779762731855",
   "verified": false,
   "last_ok": null
  },
  {
   "id": "3a801f2197df",
   "name": "Narva-Jõesuu",
   "country": "EE",
   "lat": 59.45889,
   "lon": 28.04083,
   "environment": "urban",
   "scene": "city",
   "type": "hls",
   "src": "https://edge01.balticlivecam.com/blc/narvFoscam/index.m3u8?token=02b204ca6231e8eda328aa5d91a2ca43%3A1775689222043",
   "verified": false,
   "last_ok": null
  },
  {
   "id": "246e667eb697",
   "name": "Parnu",
   "country": "EE",
   "lat": 58.38588,
   "lon": 24.49711,
   "environment": "urban",
   "scene": "city",
   "type": "hls",
   "src": "https://edge01.balticlivecam.com/blc/parnu_cityhall/index.m3u8?token=958ec5d1a537546e6f059f3f7bcc6b59%3A1775689219028",
   "verified": false,
   "last_ok": null
  },
  {
   "id": "774942b35c9e",
   "name": "Pirita Beach",
   "country": "EE",
   "lat": 59.469,
   "lon": 24.835,
   "environment": "coastal",
   "scene": "beach",
   "type": "hls",
   "src": "https://edge01.balticlivecam.com/blc/PanoTallinn/index.m3u8?token=77821002632f081abf5649de0f9c2eae:1779761240771",
   "verified": false,
   "last_ok": null
  },
  {
   "id": "c1a33c1e40f8",
   "name": "TV Tower",
   "country": "EE",
   "lat": 59.47129,
   "lon": 24.88751,
   "environment": "urban",
   "scene": "city",
   "type": "hls",
   "src": "https://sv.levira.com/teletorn/smil:teletorn.smil/chunklist_w282021538_b2096000_DVR.m3u8",
   "verified": true,
   "last_ok": "2026-07-16T03:24:19+00:00"
  },
  {
   "id": "d7c99f833300",
   "name": "Tallinn Old Town – View from Hotel Telegraaf Rooftop",
   "country": "EE",
   "lat": 59.43696,
   "lon": 24.75353,
   "environment": "landmark",
   "scene": "landmark",
   "type": "hls",
   "src": "https://edge01.balticlivecam.com/blc/TallinnOldCity/index.m3u8?token=9078f20463af268d46bf6f447126541d:1779762756756",
   "verified": false,
   "last_ok": null
  },
  {
   "id": "b3405f773504",
   "name": "Tartu",
   "country": "EE",
   "lat": 58.38062,
   "lon": 26.72509,
   "environment": "urban",
   "scene": "city",
   "type": "hls",
   "src": "https://edge01.balticlivecam.com/blc/tartu/index.m3u8?token=0cb0c7c2ebcaf671a83d08f865dee653%3A1775689220529",
   "verified": false,
   "last_ok": null
  },
  {
   "id": "cf44e367a0a1",
   "name": "A Coruña",
   "country": "ES",
   "lat": 43.37135,
   "lon": -8.396,
   "environment": "mountain",
   "scene": "mountain",
   "type": "hls",
   "src": "https://edge01.balticlivecam.com/blc/p_ES_A_Coruna/index.m3u8?token=7b7e3018dea64bc024118de48a703bec:1779761836773",
   "verified": false,
   "last_ok": null
  },
  {
   "id": "0728dd6488bf",
   "name": "Agaete beach",
   "country": "ES",
   "lat": 28.0,
   "lon": -15.5,
   "environment": "coastal",
   "scene": "beach",
   "type": "hls",
   "src": "https://edge01.balticlivecam.com/blc/p_ES_Agaete_beach_Gran_canaria/index.m3u8?token=176ee4aa75bc8aab01bf736fc6dea93b:1779761816663",
   "verified": false,
   "last_ok": null
  },
  {
   "id": "a66c69610667",
   "name": "Costa Adeje",
   "country": "ES",
   "lat": 28.07774,
   "lon": -16.72969,
   "environment": "coastal",
   "scene": "beach",
   "type": "hls",
   "src": "https://edge01.balticlivecam.com/blc/p_ES_Costa_Adeje_Tenerife/index.m3u8?token=7f67462e6cab0504d8450c6facc4ac61:1779762707014",
   "verified": false,
   "last_ok": null
  },
  {
   "id": "9c5f56a5b8df",
   "name": "ES - Illes Balears - Cabrera - Cabrera",
   "country": "ES",
   "lat": 39.15268,
   "lon": 2.93192,
   "environment": "traffic",
   "scene": "traffic",
   "type": "hls",
   "src": "https://str2.eivotv.es/canal_y/index.m3u8",
   "verified": false,
   "last_ok": null
  },
  {
   "id": "65a88cec9263",
   "name": "ES - Illes Balears - Formentera - La Mola",
   "country": "ES",
   "lat": 38.66576,
   "lon": 1.53504,
   "environment": "traffic",
   "scene": "traffic",
   "type": "hls",
   "src": "https://str2.eivotv.es/canal_r/index.m3u8",
   "verified": true,
   "last_ok": "2026-07-16T03:24:19+00:00"
  },
  {
   "id": "b88a63c8c216",
   "name": "ES - Illes Balears - Formentera - La Savina",
   "country": "ES",
   "lat": 38.73109,
   "lon": 1.41696,
   "environment": "traffic",
   "scene": "traffic",
   "type": "hls",
   "src": "https://str2.eivotv.es/canal_ai/index.m3u8",
   "verified": true,
   "last_ok": "2026-07-16T03:24:19+00:00"
  },
  {
   "id": "f5dbffa63181",
   "name": "ES - Illes Balears - Ibiza - Puig de sa Talaia",
   "country": "ES",
   "lat": 38.92368,
   "lon": 1.47058,
   "environment": "traffic",
   "scene": "traffic",
   "type": "hls",
   "src": "https://str2.eivotv.es/canal_o/index.m3u8",
   "verified": true,
   "last_ok": "2026-07-16T03:24:19+00:00"
  },
  {
   "id": "c45defd71fb5",
   "name": "ES - Illes Balears - Ibiza - San Josep",
   "country": "ES",
   "lat": 38.91559,
   "lon": 1.27752,
   "environment": "traffic",
   "scene": "traffic",
   "type": "hls",
   "src": "https://str4.strei.es/canal_s/index.m3u8",
   "verified": true,
   "last_ok": "2026-07-16T03:24:19+00:00"
  },
  {
   "id": "6b814f9d9ac4",
   "name": "ES - Illes Balears - Ibiza - Santa Eulària des Riu",
   "country": "ES",
   "lat": 38.97121,
   "lon": 1.52791,
   "environment": "traffic",
   "scene": "traffic",
   "type": "hls",
   "src": "https://str2.eivotv.es/canal_p/index.m3u8",
   "verified": true,
   "last_ok": "2026-07-16T03:24:19+00:00"
  },
  {
   "id": "ac84e64b8aac",
   "name": "ES - Illes Balears - Ibiza - Ses Figueretes",
   "country": "ES",
   "lat": 38.90589,
   "lon": 1.42565,
   "environment": "traffic",
   "scene": "traffic",
   "type": "hls",
   "src": "https://str4.strei.es/canal_ao/index.m3u8",
   "verified": true,
   "last_ok": "2026-07-16T03:24:19+00:00"
  },
  {
   "id": "444f9481406b",
   "name": "ES - Illes Balears - Mallorca - Alfàbia",
   "country": "ES",
   "lat": 39.73647,
   "lon": 2.71699,
   "environment": "traffic",
   "scene": "traffic",
   "type": "hls",
   "src": "https://str2.eivotv.es/canal_h/index.m3u8",
   "verified": true,
   "last_ok": "2026-07-16T03:24:19+00:00"
  },
  {
   "id": "370b846a1427",
   "name": "ES - Illes Balears - Mallorca - Cala Sant Vicenç",
   "country": "ES",
   "lat": 39.9188,
   "lon": 3.05882,
   "environment": "traffic",
   "scene": "traffic",
   "type": "hls",
   "src": "https://str2.eivotv.es/canal_i/index.m3u8",
   "verified": true,
   "last_ok": "2026-07-16T03:24:19+00:00"
  },
  {
   "id": "3fcb897d9983",
   "name": "ES - Illes Balears - Mallorca - Cap Blanc",
   "country": "ES",
   "lat": 39.36359,
   "lon": 2.78776,
   "environment": "traffic",
   "scene": "traffic",
   "type": "hls",
   "src": "https://str4.strei.es/canal_an/index.m3u8",
   "verified": true,
   "last_ok": "2026-07-16T03:24:19+00:00"
  },
  {
   "id": "e308edea6dc0",
   "name": "ES - Illes Balears - Mallorca - Capdepera",
   "country": "ES",
   "lat": 39.69838,
   "lon": 3.43481,
   "environment": "traffic",
   "scene": "traffic",
   "type": "hls",
   "src": "https://str2.eivotv.es/canal_a/index.m3u8",
   "verified": true,
   "last_ok": "2026-07-16T03:24:19+00:00"
  },
  {
   "id": "3c618b05fa62",
   "name": "ES - Illes Balears - Mallorca - Colònia Sant Jordi",
   "country": "ES",
   "lat": 39.31698,
   "lon": 2.99352,
   "environment": "traffic",
   "scene": "traffic",
   "type": "hls",
   "src": "https://str2.eivotv.es/canal_w/index.m3u8",
   "verified": true,
   "last_ok": "2026-07-16T03:24:19+00:00"
  },
  {
   "id": "38564fdf2452",
   "name": "ES - Illes Balears - Mallorca - El Toro - Calvià - 1",
   "country": "ES",
   "lat": 39.46225,
   "lon": 2.47218,
   "environment": "traffic",
   "scene": "traffic",
   "type": "hls",
   "src": "https://str2.eivotv.es/canal_aa/index.m3u8",
   "verified": true,
   "last_ok": "2026-07-16T03:24:19+00:00"
  },
  {
   "id": "b2da11f1dd01",
   "name": "ES - Illes Balears - Mallorca - Font de sa Cala",
   "country": "ES",
   "lat": 39.67743,
   "lon": 3.45134,
   "environment": "traffic",
   "scene": "traffic",
   "type": "hls",
   "src": "https://str2.eivotv.es/canal_t/index.m3u8",
   "verified": true,
   "last_ok": "2026-07-16T03:24:19+00:00"
  },
  {
   "id": "4a789dfe0c3d",
   "name": "ES - Illes Balears - Mallorca - Manacor",
   "country": "ES",
   "lat": 39.57205,
   "lon": 3.24216,
   "environment": "traffic",
   "scene": "traffic",
   "type": "hls",
   "src": "https://str2.eivotv.es/canal_af/index.m3u8",
   "verified": true,
   "last_ok": "2026-07-16T03:24:19+00:00"
  },
  {
   "id": "8fb03a227bc3",
   "name": "ES - Illes Balears - Mallorca - Mancor",
   "country": "ES",
   "lat": 39.75183,
   "lon": 2.87984,
   "environment": "traffic",
   "scene": "traffic",
   "type": "hls",
   "src": "https://str2.eivotv.es/canal_ad/index.m3u8",
   "verified": true,
   "last_ok": "2026-07-16T03:24:19+00:00"
  },
  {
   "id": "130471a370e3",
   "name": "ES - Illes Balears - Mallorca - Museu Sa Bassa Blanca",
   "country": "ES",
   "lat": 39.84375,
   "lon": 3.1802,
   "environment": "traffic",
   "scene": "traffic",
   "type": "hls",
   "src": "https://str2.eivotv.es/canal_l/index.m3u8",
   "verified": true,
   "last_ok": "2026-07-16T03:24:19+00:00"
  },
  {
   "id": "bc91f511e4c8",
   "name": "ES - Illes Balears - Mallorca - Platja Alconàsser - Sóller",
   "country": "ES",
   "lat": 39.783,
   "lon": 2.6707,
   "environment": "traffic",
   "scene": "traffic",
   "type": "hls",
   "src": "https://str2.eivotv.es/canal_q/index.m3u8",
   "verified": true,
   "last_ok": "2026-07-16T03:24:19+00:00"
  },
  {
   "id": "bc00120783b5",
   "name": "ES - Illes Balears - Mallorca - Port de Pollença Playa",
   "country": "ES",
   "lat": 39.90282,
   "lon": 3.08025,
   "environment": "traffic",
   "scene": "traffic",
   "type": "hls",
   "src": "https://str2.eivotv.es/canal_ag/index.m3u8",
   "verified": true,
   "last_ok": "2026-07-16T03:24:19+00:00"
  },
  {
   "id": "2f2acdc4f705",
   "name": "ES - Illes Balears - Mallorca - Puig de Maria, Pollença",
   "country": "ES",
   "lat": 39.869,
   "lon": 3.02254,
   "environment": "traffic",
   "scene": "traffic",
   "type": "hls",
   "src": "https://str2.eivotv.es/canal_u/index.m3u8",
   "verified": true,
   "last_ok": "2026-07-16T03:24:19+00:00"
  },
  {
   "id": "42a68a5d107d",
   "name": "ES - Illes Balears - Mallorca - Puig de Randa",
   "country": "ES",
   "lat": 39.52679,
   "lon": 2.92837,
   "environment": "traffic",
   "scene": "traffic",
   "type": "hls",
   "src": "https://str2.eivotv.es/canal_e/index.m3u8",
   "verified": true,
   "last_ok": "2026-07-16T03:24:19+00:00"
  },
  {
   "id": "cb95b9e189df",
   "name": "ES - Illes Balears - Mallorca - Puig de sa Tudossa - Artà",
   "country": "ES",
   "lat": 39.76499,
   "lon": 3.34334,
   "environment": "traffic",
   "scene": "traffic",
   "type": "hls",
   "src": "https://str2.eivotv.es/canal_k/index.m3u8",
   "verified": true,
   "last_ok": "2026-07-16T03:24:19+00:00"
  },
  {
   "id": "414291a527e1",
   "name": "ES - Illes Balears - Mallorca - S'Horta",
   "country": "ES",
   "lat": 39.41553,
   "lon": 3.21306,
   "environment": "traffic",
   "scene": "traffic",
   "type": "hls",
   "src": "https://str2.eivotv.es/canal_ae/index.m3u8",
   "verified": true,
   "last_ok": "2026-07-16T03:24:19+00:00"
  },
  {
   "id": "00ea4fdb3d1d",
   "name": "ES - Illes Balears - Mallorca - S'Illot",
   "country": "ES",
   "lat": 39.56992,
   "lon": 3.37335,
   "environment": "traffic",
   "scene": "traffic",
   "type": "hls",
   "src": "https://str2.eivotv.es/canal_j/index.m3u8",
   "verified": true,
   "last_ok": "2026-07-16T03:24:19+00:00"
  },
  {
   "id": "0ad6d2d7a93f",
   "name": "ES - Illes Balears - Mallorca - Santa Magdalena",
   "country": "ES",
   "lat": 39.72875,
   "lon": 2.95652,
   "environment": "traffic",
   "scene": "traffic",
   "type": "hls",
   "src": "https://str4.strei.es/canal_am/index.m3u8",
   "verified": true,
   "last_ok": "2026-07-16T03:24:19+00:00"
  },
  {
   "id": "1c61ced64f7b",
   "name": "ES - Illes Balears - Menorca - Monte Toro",
   "country": "ES",
   "lat": 39.98428,
   "lon": 4.11315,
   "environment": "traffic",
   "scene": "traffic",
   "type": "hls",
   "src": "https://str2.eivotv.es/canal_g/index.m3u8",
   "verified": true,
   "last_ok": "2026-07-16T03:24:19+00:00"
  },
  {
   "id": "ba0920b5ee7e",
   "name": "ES - Illes Balears - Menorca - Punta Prima",
   "country": "ES",
   "lat": 39.8145,
   "lon": 4.28085,
   "environment": "traffic",
   "scene": "traffic",
   "type": "hls",
   "src": "https://str4.strei.es/canal_al/index.m3u8",
   "verified": true,
   "last_ok": "2026-07-16T03:24:19+00:00"
  },
  {
   "id": "c69820413dd0",
   "name": "ES - Illes Balears - Menorca - Sa Mesquida",
   "country": "ES",
   "lat": 39.91061,
   "lon": 4.2913,
   "environment": "traffic",
   "scene": "traffic",
   "type": "hls",
   "src": "https://str4.strei.es/canal_ak/index.m3u8",
   "verified": true,
   "last_ok": "2026-07-16T03:24:19+00:00"
  },
  {
   "id": "921d0cf68a1b",
   "name": "La Cicer Beach",
   "country": "ES",
   "lat": 28.0,
   "lon": -15.5,
   "environment": "coastal",
   "scene": "beach",
   "type": "hls",
   "src": "https://edge01.balticlivecam.com/blc/p_ES_Las_palmas_la_cicer_beach/index.m3u8?token=4c7feb464aeca073f812a16396dcb676:1779761821940",
   "verified": false,
   "last_ok": null
  },
  {
   "id": "c8c0f8e31de3",
   "name": "Las Palmas Gran de Canaria coastline",
   "country": "ES",
   "lat": 28.0,
   "lon": -15.5,
   "environment": "coastal",
   "scene": "beach",
   "type": "hls",
   "src": "https://edge04.balticlivecam.com/blc/p_ES_Las_Palmas_gran_canaria_coastline/index.m3u8?token=14decf30deee31816fd528261a8f8dc3:1779762709967",
   "verified": false,
   "last_ok": null
  },
  {
   "id": "6ad4a9daa3e7",
   "name": "Monterrey Castle",
   "country": "ES",
   "lat": 41.94149,
   "lon": -7.43809,
   "environment": "harbor",
   "scene": "harbor",
   "type": "hls",
   "src": "https://edge01.balticlivecam.com/blc/p_ES_Verin_Monterrey_Castle/index.m3u8?token=681c60337ca843cae5d051ac42ac2a04:1779761840377",
   "verified": false,
   "last_ok": null
  },
  {
   "id": "208e7a538de5",
   "name": "Playa del Inglés",
   "country": "ES",
   "lat": 27.7567,
   "lon": -15.5787,
   "environment": "coastal",
   "scene": "beach",
   "type": "hls",
   "src": "https://edge04.balticlivecam.com/blc/p_ES_Gran_Canaria_Playa_de_ingles/index.m3u8?token=fc39ba91e80801c184a393913e146959:1779762711965",
   "verified": false,
   "last_ok": null
  },
  {
   "id": "230417432e7a",
   "name": "Pontevedra",
   "country": "ES",
   "lat": 42.431,
   "lon": -8.64435,
   "environment": "coastal",
   "scene": "beach",
   "type": "hls",
   "src": "https://edge04.balticlivecam.com/blc/p_ES_Pontevedra/index.m3u8?token=b9e04231ad0c7565bb074c9c6ddac454:1779761842199",
   "verified": false,
   "last_ok": null
  },
  {
   "id": "eafc14aa4a0d",
   "name": "Port of Malaga",
   "country": "ES",
   "lat": 36.72016,
   "lon": -4.42034,
   "environment": "harbor",
   "scene": "harbor",
   "type": "hls",
   "src": "https://edge01.balticlivecam.com/blc/p_ES_Malaga_port/index.m3u8?token=2ed4ac7adc51839aaac2adcb94c12943:1779761826813",
   "verified": false,
   "last_ok": null
  },
  {
   "id": "58d6c3c6503e",
   "name": "Puerto De las Nieves Harbour",
   "country": "ES",
   "lat": 28.0,
   "lon": -15.5,
   "environment": "coastal",
   "scene": "beach",
   "type": "hls",
   "src": "https://edge01.balticlivecam.com/blc/p_ES_Puerto_De_las_Nieves_Harbour/index.m3u8?token=7d5f46ba5262545200a8cd7d420a5ce1:1779761818444",
   "verified": false,
   "last_ok": null
  },
  {
   "id": "e9b35084149f",
   "name": "Helsinki – View from Klaus K Hotel",
   "country": "FI",
   "lat": 60.1699,
   "lon": 24.9384,
   "environment": "urban",
   "scene": "city",
   "type": "hls",
   "src": "https://edge01.balticlivecam.com/blc/Helsing/index.m3u8?token=0d83f8beff711d6bfabd2645ea0fcd55:1774424508966",
   "verified": false,
   "last_ok": null
  },
  {
   "id": "f188a3f0d7a9",
   "name": "Cinderford town centre",
   "country": "GB",
   "lat": 51.82421,
   "lon": -2.4987,
   "environment": "urban",
   "scene": "city",
   "type": "hls",
   "src": "https://edge01.balticlivecam.com/blc/p_UK_Cinderford_Town_Centre/index.m3u8?token=efb8cb538cfa71d57b2bfb0ba9ed890d:1779761761552",
   "verified": false,
   "last_ok": null
  },
  {
   "id": "f479f36b8dcf",
   "name": "Folkestone harbour",
   "country": "GB",
   "lat": 51.08169,
   "lon": 1.16734,
   "environment": "harbor",
   "scene": "harbor",
   "type": "hls",
   "src": "https://edge01.balticlivecam.com/blc/p_UK_Folkestone_port/index.m3u8?token=73164895f1ae5b70112baf50deeeb5d8:1779761759642",
   "verified": false,
   "last_ok": null
  },
  {
   "id": "268cca76beed",
   "name": "Looe Harbour - Plymouth Webcam - England 🎦",
   "country": "GB",
   "lat": 50.37153,
   "lon": -4.14305,
   "environment": "harbor",
   "scene": "harbor",
   "type": "hls",
   "src": "https://camstream.uk/HLS/looe3.m3u8",
   "verified": true,
   "last_ok": "2026-07-16T03:24:19+00:00"
  },
  {
   "id": "e3645e3eaa3b",
   "name": "Old Hunstanton Beach",
   "country": "GB",
   "lat": 52.95,
   "lon": 0.5,
   "environment": "coastal",
   "scene": "beach",
   "type": "hls",
   "src": "https://edge01.balticlivecam.com/blc/p_UK_Old_Hunstanton_Beach/index.m3u8?token=c1e341d5d5657048bd49bae12fff5695:1779762713939",
   "verified": false,
   "last_ok": null
  },
  {
   "id": "bbceb3c5d622",
   "name": "Robin Hood’s Bay",
   "country": "GB",
   "lat": 54.3941,
   "lon": -0.56793,
   "environment": "coastal",
   "scene": "beach",
   "type": "hls",
   "src": "https://edge01.balticlivecam.com/blc/p_UK_Robin_Hood_Bay/index.m3u8?token=2dab011e7bede85fa03a669f14e40d42:1779761755173",
   "verified": false,
   "last_ok": null
  },
  {
   "id": "e5cdde945d8c",
   "name": "Saint Aubin",
   "country": "GB",
   "lat": 49.1843,
   "lon": -2.1682,
   "environment": "coastal",
   "scene": "beach",
   "type": "hls",
   "src": "https://edge01.balticlivecam.com/blc/p_UK_Jersey_Island_Saint_Aubin/index.m3u8?token=c1f492ba2ec2e27d84097adc7af52e94:1779761748083",
   "verified": false,
   "last_ok": null
  },
  {
   "id": "194bc37228bf",
   "name": "Uppingham Market Place",
   "country": "GB",
   "lat": 52.58803,
   "lon": -0.72272,
   "environment": "landmark",
   "scene": "landmark",
   "type": "hls",
   "src": "https://edge04.balticlivecam.com/blc/p_UK_Uppingham_market_place/index.m3u8?token=08a99d00ca6a0c08204507df3047417d:1779762743819",
   "verified": false,
   "last_ok": null
  },
  {
   "id": "5b526b9aed24",
   "name": "Tsoukalades",
   "country": "GR",
   "lat": 38.83036,
   "lon": 20.70442,
   "environment": "urban",
   "scene": "city",
   "type": "hls",
   "src": "https://edge01.balticlivecam.com/blc/p_GR_Lefkada_Tsoukalades/index.m3u8?token=af8f9f61c471116d4f4544f0019853fd:1774424308468",
   "verified": false,
   "last_ok": null
  },
  {
   "id": "62fb89af7572",
   "name": "Jezera",
   "country": "HR",
   "lat": 43.82043,
   "lon": 15.58988,
   "environment": "urban",
   "scene": "city",
   "type": "hls",
   "src": "https://edge01.balticlivecam.com/blc/p_CR_Jezera_Murter/index.m3u8?token=728f3fd4b120d907ac1103f0c3c6d1e3%3A1775689180263",
   "verified": false,
   "last_ok": null
  },
  {
   "id": "1559e23ace03",
   "name": "Tisno bridge",
   "country": "HR",
   "lat": 43.80417,
   "lon": 15.64333,
   "environment": "urban",
   "scene": "city",
   "type": "hls",
   "src": "https://edge04.balticlivecam.com/blc/p_HR_Tisno_bridge/index.m3u8?token=ca33e7747a00e76c907f314b0032e6b9%3A1775689178795",
   "verified": false,
   "last_ok": null
  },
  {
   "id": "13328e4df984",
   "name": "Hungarian Parliament Building",
   "country": "HU",
   "lat": 47.4979,
   "lon": 19.0402,
   "environment": "urban",
   "scene": "city",
   "type": "hls",
   "src": "https://edge01.balticlivecam.com/blc/p_HU_Budapest/index.m3u8?token=a9e5132d47dce1732939a1a3829e8bc6%3A1775689268932",
   "verified": false,
   "last_ok": null
  },
  {
   "id": "1ea1cb936cf3",
   "name": "ATCS Tasikmalaya — Batas Kota Arah Bandung",
   "country": "ID",
   "lat": -7.33086,
   "lon": 108.21619,
   "environment": "traffic",
   "scene": "traffic",
   "type": "hls",
   "src": "https://atcs.tasikmalayakota.go.id/camera/bataskotaarahbandung.m3u8",
   "verified": true,
   "last_ok": "2026-07-16T03:24:19+00:00"
  },
  {
   "id": "1d6fb62716a1",
   "name": "ATCS Tasikmalaya — Karang Resik",
   "country": "ID",
   "lat": -7.3272,
   "lon": 108.22574,
   "environment": "traffic",
   "scene": "traffic",
   "type": "hls",
   "src": "https://atcs.tasikmalayakota.go.id/camera/bataskotaciamis.m3u8",
   "verified": true,
   "last_ok": "2026-07-16T03:24:19+00:00"
  },
  {
   "id": "24352554f7fd",
   "name": "ATCS Tasikmalaya — Ruas M. Hatta",
   "country": "ID",
   "lat": -7.32073,
   "lon": 108.22302,
   "environment": "traffic",
   "scene": "traffic",
   "type": "hls",
   "src": "https://atcs.tasikmalayakota.go.id/camera/mhatta.m3u8",
   "verified": true,
   "last_ok": "2026-07-16T03:24:19+00:00"
  },
  {
   "id": "48823a483aa9",
   "name": "ATCS Tasikmalaya — Simpang Alun-alun Arah Sutisna Senjaya",
   "country": "ID",
   "lat": -7.33526,
   "lon": 108.21394,
   "environment": "traffic",
   "scene": "traffic",
   "type": "hls",
   "src": "https://atcs.tasikmalayakota.go.id/camera/alunalunarahsutsen.m3u8",
   "verified": true,
   "last_ok": "2026-07-16T03:24:19+00:00"
  },
  {
   "id": "ae62ff7cd5d3",
   "name": "ATCS Tasikmalaya — Simpang Alun-alun Arah Tentara Pelajar",
   "country": "ID",
   "lat": -7.32488,
   "lon": 108.21339,
   "environment": "traffic",
   "scene": "traffic",
   "type": "hls",
   "src": "https://atcs.tasikmalayakota.go.id/camera/alunalunarahtentarapelajar.m3u8",
   "verified": true,
   "last_ok": "2026-07-16T03:24:19+00:00"
  },
  {
   "id": "b389c117b140",
   "name": "ATCS Tasikmalaya — Simpang Bantar",
   "country": "ID",
   "lat": -7.32777,
   "lon": 108.22297,
   "environment": "traffic",
   "scene": "traffic",
   "type": "hls",
   "src": "https://atcs.tasikmalayakota.go.id/camera/bantar.m3u8",
   "verified": true,
   "last_ok": "2026-07-16T03:24:19+00:00"
  },
  {
   "id": "8e2caf9e1b39",
   "name": "ATCS Tasikmalaya — Simpang Bojong Jengkol Arah Wasita Kusuma",
   "country": "ID",
   "lat": -7.31854,
   "lon": 108.21724,
   "environment": "traffic",
   "scene": "traffic",
   "type": "hls",
   "src": "https://atcs.tasikmalayakota.go.id/camera/bojongjengkolarahwasita.m3u8",
   "verified": true,
   "last_ok": "2026-07-16T03:24:19+00:00"
  },
  {
   "id": "eece871b3d6c",
   "name": "ATCS Tasikmalaya — Simpang Cibogor Arah Ciamis",
   "country": "ID",
   "lat": -7.3363,
   "lon": 108.2181,
   "environment": "traffic",
   "scene": "traffic",
   "type": "hls",
   "src": "https://atcs.tasikmalayakota.go.id/camera/cibogorarahciamis.m3u8",
   "verified": true,
   "last_ok": "2026-07-16T03:24:19+00:00"
  },
  {
   "id": "4252829c0f3b",
   "name": "ATCS Tasikmalaya — Simpang Cibogor Arah M. Hatta",
   "country": "ID",
   "lat": -7.33334,
   "lon": 108.22344,
   "environment": "traffic",
   "scene": "traffic",
   "type": "hls",
   "src": "https://atcs.tasikmalayakota.go.id/camera/cibogorarahmhatta.m3u8",
   "verified": true,
   "last_ok": "2026-07-16T03:24:19+00:00"
  },
  {
   "id": "c9328b585c77",
   "name": "ATCS Tasikmalaya — Simpang Cibogor Arah Sutisna Senjaya",
   "country": "ID",
   "lat": -7.32287,
   "lon": 108.2263,
   "environment": "traffic",
   "scene": "traffic",
   "type": "hls",
   "src": "https://atcs.tasikmalayakota.go.id/camera/cibogorarahsutsen.m3u8",
   "verified": true,
   "last_ok": "2026-07-16T03:24:19+00:00"
  },
  {
   "id": "8c4ba58947ee",
   "name": "ATCS Tasikmalaya — Simpang Cihideung",
   "country": "ID",
   "lat": -7.33398,
   "lon": 108.22656,
   "environment": "traffic",
   "scene": "traffic",
   "type": "hls",
   "src": "https://atcs.tasikmalayakota.go.id/camera/cihideung.m3u8",
   "verified": true,
   "last_ok": "2026-07-16T03:24:19+00:00"
  },
  {
   "id": "7f7b05304f73",
   "name": "ATCS Tasikmalaya — Simpang Gunung Sabeulah",
   "country": "ID",
   "lat": -7.32437,
   "lon": 108.22208,
   "environment": "traffic",
   "scene": "traffic",
   "type": "hls",
   "src": "https://atcs.tasikmalayakota.go.id/camera/gunungsabeulah.m3u8",
   "verified": true,
   "last_ok": "2026-07-16T03:24:19+00:00"
  },
  {
   "id": "90a830778610",
   "name": "ATCS Tasikmalaya — Simpang Leuwidahu Arah Bojong Jengkol",
   "country": "ID",
   "lat": -7.32697,
   "lon": 108.22932,
   "environment": "traffic",
   "scene": "traffic",
   "type": "hls",
   "src": "https://atcs.tasikmalayakota.go.id/camera/leuwidahuarahjati.m3u8",
   "verified": true,
   "last_ok": "2026-07-16T03:24:19+00:00"
  },
  {
   "id": "2197178dd036",
   "name": "ATCS Tasikmalaya — Simpang Leuwidahu Arah Jati",
   "country": "ID",
   "lat": -7.32391,
   "lon": 108.22164,
   "environment": "traffic",
   "scene": "traffic",
   "type": "hls",
   "src": "https://atcs.tasikmalayakota.go.id/camera/leuwidahuarahbojongjengkol.m3u8",
   "verified": true,
   "last_ok": "2026-07-16T03:24:19+00:00"
  },
  {
   "id": "ecb7ea2fab88",
   "name": "ATCS Tasikmalaya — Simpang Lima",
   "country": "ID",
   "lat": -7.32836,
   "lon": 108.2129,
   "environment": "traffic",
   "scene": "traffic",
   "type": "hls",
   "src": "https://atcs.tasikmalayakota.go.id/camera/simpanglima.m3u8",
   "verified": true,
   "last_ok": "2026-07-16T03:24:19+00:00"
  },
  {
   "id": "240acec27170",
   "name": "ATCS Tasikmalaya — Simpang Masjid Agung",
   "country": "ID",
   "lat": -7.33136,
   "lon": 108.22986,
   "environment": "traffic",
   "scene": "traffic",
   "type": "hls",
   "src": "https://atcs.tasikmalayakota.go.id/camera/masjidagungptz.m3u8",
   "verified": true,
   "last_ok": "2026-07-16T03:24:19+00:00"
  },
  {
   "id": "721bf1377c52",
   "name": "ATCS Tasikmalaya — Simpang Masjid Agung Arah Gedung Dakwah",
   "country": "ID",
   "lat": -7.31953,
   "lon": 108.21342,
   "environment": "traffic",
   "scene": "traffic",
   "type": "hls",
   "src": "https://atcs.tasikmalayakota.go.id/camera/masjidagungarahgedungdakwah.m3u8",
   "verified": true,
   "last_ok": "2026-07-16T03:24:19+00:00"
  },
  {
   "id": "74b0184fd2bf",
   "name": "ATCS Tasikmalaya — Simpang Panyerutan FIX",
   "country": "ID",
   "lat": -7.31883,
   "lon": 108.22748,
   "environment": "traffic",
   "scene": "traffic",
   "type": "hls",
   "src": "https://atcs.tasikmalayakota.go.id/camera/panyerutanarahnagarawangi.m3u8",
   "verified": true,
   "last_ok": "2026-07-16T03:24:19+00:00"
  },
  {
   "id": "d8b8df1eca5d",
   "name": "ATCS Tasikmalaya — Simpang Panyerutan PTZ",
   "country": "ID",
   "lat": -7.31973,
   "lon": 108.22831,
   "environment": "traffic",
   "scene": "traffic",
   "type": "hls",
   "src": "https://atcs.tasikmalayakota.go.id/camera/panyerutanptz.m3u8",
   "verified": true,
   "last_ok": "2026-07-16T03:24:19+00:00"
  },
  {
   "id": "28b6d12e94f0",
   "name": "ATCS Tasikmalaya — Simpang Paseh",
   "country": "ID",
   "lat": -7.31998,
   "lon": 108.22987,
   "environment": "traffic",
   "scene": "traffic",
   "type": "hls",
   "src": "https://atcs.tasikmalayakota.go.id/camera/pasehptz.m3u8",
   "verified": true,
   "last_ok": "2026-07-16T03:24:19+00:00"
  },
  {
   "id": "15e303642742",
   "name": "ATCS Tasikmalaya — Simpang Pataruman FIX",
   "country": "ID",
   "lat": -7.31975,
   "lon": 108.21451,
   "environment": "traffic",
   "scene": "traffic",
   "type": "hls",
   "src": "https://atcs.tasikmalayakota.go.id/camera/patarumanarahnagarawangi.m3u8",
   "verified": true,
   "last_ok": "2026-07-16T03:24:19+00:00"
  },
  {
   "id": "64a63e80f0be",
   "name": "ATCS Tasikmalaya — Simpang Pataruman PTZ",
   "country": "ID",
   "lat": -7.33624,
   "lon": 108.22198,
   "environment": "traffic",
   "scene": "traffic",
   "type": "hls",
   "src": "https://atcs.tasikmalayakota.go.id/camera/patarumanptz.m3u8",
   "verified": true,
   "last_ok": "2026-07-16T03:24:19+00:00"
  },
  {
   "id": "bfdfc223625c",
   "name": "ATCS Tasikmalaya — Simpang Rancabango Arah Letnan Harun",
   "country": "ID",
   "lat": -7.31811,
   "lon": 108.22576,
   "environment": "traffic",
   "scene": "traffic",
   "type": "hls",
   "src": "https://atcs.tasikmalayakota.go.id/camera/rancabangoarahletnanharun.m3u8",
   "verified": true,
   "last_ok": "2026-07-16T03:24:19+00:00"
  },
  {
   "id": "49f5ea48374b",
   "name": "ATCS Tasikmalaya — Simpang Rancabango Arah Simpang Bantar",
   "country": "ID",
   "lat": -7.33515,
   "lon": 108.22521,
   "environment": "traffic",
   "scene": "traffic",
   "type": "hls",
   "src": "https://atcs.tasikmalayakota.go.id/camera/rancabangoptz.m3u8",
   "verified": true,
   "last_ok": "2026-07-16T03:24:19+00:00"
  },
  {
   "id": "a72728354239",
   "name": "ATCS Tasikmalaya — Simpang Rumah Sakit",
   "country": "ID",
   "lat": -7.33363,
   "lon": 108.21099,
   "environment": "traffic",
   "scene": "traffic",
   "type": "hls",
   "src": "https://atcs.tasikmalayakota.go.id/camera/rumahsakit.m3u8",
   "verified": true,
   "last_ok": "2026-07-16T03:24:19+00:00"
  },
  {
   "id": "b50e36bae64e",
   "name": "ATCS Tasikmalaya — Simpang Sutisna Senjaya",
   "country": "ID",
   "lat": -7.32413,
   "lon": 108.21864,
   "environment": "traffic",
   "scene": "traffic",
   "type": "hls",
   "src": "https://atcs.tasikmalayakota.go.id/camera/sutisnasenjaya.m3u8",
   "verified": true,
   "last_ok": "2026-07-16T03:24:19+00:00"
  },
  {
   "id": "6c3dc8dab48a",
   "name": "ATCS Tasikmalaya — Simpang Wasita Kusuma Arah Bandung",
   "country": "ID",
   "lat": -7.32725,
   "lon": 108.2192,
   "environment": "traffic",
   "scene": "traffic",
   "type": "hls",
   "src": "https://atcs.tasikmalayakota.go.id/camera/wasitakusumaarahbandung.m3u8",
   "verified": true,
   "last_ok": "2026-07-16T03:24:19+00:00"
  },
  {
   "id": "68094cb53a6d",
   "name": "ATCS Tasikmalaya — Simpang Wasita Kusuma Arah Bojong Jengkol",
   "country": "ID",
   "lat": -7.32189,
   "lon": 108.22509,
   "environment": "traffic",
   "scene": "traffic",
   "type": "hls",
   "src": "https://atcs.tasikmalayakota.go.id/camera/wasitakusumaarahbojongjengkol.m3u8",
   "verified": true,
   "last_ok": "2026-07-16T03:24:19+00:00"
  },
  {
   "id": "7a830d607298",
   "name": "ATCS Tasikmalaya — Simpang Wasita Kusuma Arah Letnan Harun",
   "country": "ID",
   "lat": -7.32596,
   "lon": 108.22379,
   "environment": "traffic",
   "scene": "traffic",
   "type": "hls",
   "src": "https://atcs.tasikmalayakota.go.id/camera/wasitakusumaarahletnanharun.m3u8",
   "verified": true,
   "last_ok": "2026-07-16T03:24:19+00:00"
  },
  {
   "id": "3e23e34170fd",
   "name": "ATCS Tasikmalaya — Taman Alun Alun",
   "country": "ID",
   "lat": -7.33025,
   "lon": 108.21194,
   "environment": "traffic",
   "scene": "traffic",
   "type": "hls",
   "src": "https://atcs.tasikmalayakota.go.id/camera/alunalunptz.m3u8",
   "verified": true,
   "last_ok": "2026-07-16T03:24:19+00:00"
  },
  {
   "id": "ce86cafe007d",
   "name": "ATCS Tasikmalaya — Taman Kota (Batu Andesit) Arah HZ Mustofa",
   "country": "ID",
   "lat": -7.3346,
   "lon": 108.21766,
   "environment": "traffic",
   "scene": "traffic",
   "type": "hls",
   "src": "https://atcs.tasikmalayakota.go.id/camera/tamankota.m3u8",
   "verified": true,
   "last_ok": "2026-07-16T03:24:19+00:00"
  },
  {
   "id": "eb9f11fa5045",
   "name": "ID - Banten - IC TUNJUNGTEJA",
   "country": "ID",
   "lat": -6.346,
   "lon": 106.154,
   "environment": "traffic",
   "scene": "traffic",
   "type": "hls",
   "src": "https://cctv.wikaserangpanimbang.com/camera/bearer/tiod/1/17/index.m3u8",
   "verified": true,
   "last_ok": "2026-07-16T03:24:19+00:00"
  },
  {
   "id": "5c7c861ce1a2",
   "name": "ID - Banten - MR 65+900",
   "country": "ID",
   "lat": -6.345,
   "lon": 106.157,
   "environment": "traffic",
   "scene": "traffic",
   "type": "hls",
   "src": "https://cctv.wikaserangpanimbang.com/camera/bearer/tiod/1/3/index.m3u8",
   "verified": true,
   "last_ok": "2026-07-16T03:24:19+00:00"
  },
  {
   "id": "f246c6d20f96",
   "name": "ID - Banten - MR 74+400",
   "country": "ID",
   "lat": -6.337,
   "lon": 106.165,
   "environment": "traffic",
   "scene": "traffic",
   "type": "hls",
   "src": "https://cctv.wikaserangpanimbang.com/camera/bearer/tiod/1/7/index.m3u8",
   "verified": true,
   "last_ok": "2026-07-16T03:24:19+00:00"
  },
  {
   "id": "8277d3fbea11",
   "name": "ID - Banten - MR 75+500",
   "country": "ID",
   "lat": -6.334,
   "lon": 106.166,
   "environment": "traffic",
   "scene": "traffic",
   "type": "hls",
   "src": "https://cctv.wikaserangpanimbang.com/camera/bearer/tiod/1/8/index.m3u8",
   "verified": true,
   "last_ok": "2026-07-16T03:24:19+00:00"
  },
  {
   "id": "39fc08fc4077",
   "name": "ID - Banten - MR 81+200",
   "country": "ID",
   "lat": -6.33,
   "lon": 106.17,
   "environment": "traffic",
   "scene": "traffic",
   "type": "hls",
   "src": "https://cctv.wikaserangpanimbang.com/camera/bearer/tiod/1/14/index.m3u8",
   "verified": true,
   "last_ok": "2026-07-16T03:24:19+00:00"
  },
  {
   "id": "b5255fb88078",
   "name": "ID - Banten - MR 89+900",
   "country": "ID",
   "lat": -6.325,
   "lon": 106.177,
   "environment": "traffic",
   "scene": "traffic",
   "type": "hls",
   "src": "https://cctv.wikaserangpanimbang.com/camera/bearer/tiod/1/22/index.m3u8",
   "verified": true,
   "last_ok": "2026-07-16T03:24:19+00:00"
  },
  {
   "id": "9cba43b8a888",
   "name": "ID - Banten - ON RAMP WALANTAKA",
   "country": "ID",
   "lat": -6.321,
   "lon": 106.181,
   "environment": "traffic",
   "scene": "traffic",
   "type": "hls",
   "src": "https://cctv.wikaserangpanimbang.com/camera/bearer/tiod/1/1/index.m3u8",
   "verified": true,
   "last_ok": "2026-07-16T03:24:19+00:00"
  },
  {
   "id": "8b7d97bee2e8",
   "name": "ID - Banten - Tangerang - 12+750 A",
   "country": "ID",
   "lat": -6.32,
   "lon": 106.48,
   "environment": "traffic",
   "scene": "traffic",
   "type": "hls",
   "src": "https://info.serbaraja-tollroad.co.id:20443/LiveApp/streams/10019.m3u8",
   "verified": true,
   "last_ok": "2026-07-16T03:24:19+00:00"
  },
  {
   "id": "81e789b99ff9",
   "name": "ID - Banten - Tangerang - 13+200 A",
   "country": "ID",
   "lat": -6.315,
   "lon": 106.487,
   "environment": "traffic",
   "scene": "traffic",
   "type": "hls",
   "src": "https://info.serbaraja-tollroad.co.id:20443/LiveApp/streams/10003.m3u8",
   "verified": true,
   "last_ok": "2026-07-16T03:24:19+00:00"
  },
  {
   "id": "aa6dd0789f96",
   "name": "ID - Banten - Tangerang - 14+700 A",
   "country": "ID",
   "lat": -6.303,
   "lon": 106.499,
   "environment": "traffic",
   "scene": "traffic",
   "type": "hls",
   "src": "https://info.serbaraja-tollroad.co.id:20443/LiveApp/streams/10009.m3u8",
   "verified": true,
   "last_ok": "2026-07-16T03:24:19+00:00"
  },
  {
   "id": "9f4ebf8733fc",
   "name": "ID - Banten - Tangerang - 15+200 B",
   "country": "ID",
   "lat": -6.296,
   "lon": 106.504,
   "environment": "traffic",
   "scene": "traffic",
   "type": "hls",
   "src": "https://info.serbaraja-tollroad.co.id:20443/LiveApp/streams/10012.m3u8",
   "verified": true,
   "last_ok": "2026-07-16T03:24:19+00:00"
  },
  {
   "id": "8278a478ae0c",
   "name": "ID - Banten - Tangerang - 16+100 A",
   "country": "ID",
   "lat": -6.291,
   "lon": 106.511,
   "environment": "traffic",
   "scene": "traffic",
   "type": "hls",
   "src": "https://info.serbaraja-tollroad.co.id:20443/LiveApp/streams/10015.m3u8",
   "verified": true,
   "last_ok": "2026-07-16T03:24:19+00:00"
  },
  {
   "id": "cc690f5e6057",
   "name": "ID - Banten - Tangerang - 16+650 B",
   "country": "ID",
   "lat": -6.284,
   "lon": 106.516,
   "environment": "traffic",
   "scene": "traffic",
   "type": "hls",
   "src": "https://info.serbaraja-tollroad.co.id:20443/LiveApp/streams/10018.m3u8",
   "verified": true,
   "last_ok": "2026-07-16T03:24:19+00:00"
  },
  {
   "id": "f003b080410e",
   "name": "ID - Banten - Tangerang - Cikupa Kedaton 1",
   "country": "ID",
   "lat": -6.20384,
   "lon": 106.52236,
   "environment": "traffic",
   "scene": "traffic",
   "type": "hls",
   "src": "https://cctv-dishub.tangerangkab.go.id/storage/video/01jsnyfnzs6e5818bdsed2jppp/01jsnyfnzs6e5818bdsed2jppp.m3u8",
   "verified": true,
   "last_ok": "2026-07-16T03:24:19+00:00"
  },
  {
   "id": "a35cc57b9201",
   "name": "ID - Banten - Tangerang - GT BSD Timur 1",
   "country": "ID",
   "lat": -6.28,
   "lon": 106.52,
   "environment": "traffic",
   "scene": "traffic",
   "type": "hls",
   "src": "https://info.serbaraja-tollroad.co.id:20443/LiveApp/streams/10025.m3u8",
   "verified": true,
   "last_ok": "2026-07-16T03:24:19+00:00"
  },
  {
   "id": "bb38b7452f08",
   "name": "ID - Banten - Tangerang - Jalan Akses On Ramp BSD Timur 1 On Ramp",
   "country": "ID",
   "lat": -6.276,
   "lon": 106.524,
   "environment": "traffic",
   "scene": "traffic",
   "type": "hls",
   "src": "https://info.serbaraja-tollroad.co.id:20443/LiveApp/streams/10021.m3u8",
   "verified": true,
   "last_ok": "2026-07-16T03:24:19+00:00"
  },
  {
   "id": "5e7b2dfca958",
   "name": "ID - Banten - Tangerang - Jayanti 1 Arah Serang",
   "country": "ID",
   "lat": -6.20659,
   "lon": 106.37423,
   "environment": "traffic",
   "scene": "traffic",
   "type": "hls",
   "src": "https://cctv-dishub.tangerangkab.go.id/storage/video/01jsnyfnzn18d0ca1m7p4ctvx1/01jsnyfnzn18d0ca1m7p4ctvx1.m3u8",
   "verified": true,
   "last_ok": "2026-07-16T03:24:19+00:00"
  },
  {
   "id": "1bc8e8ac9d13",
   "name": "ID - Banten - Tangerang - Jl. Pantura Bitung 1",
   "country": "ID",
   "lat": -6.22283,
   "lon": 106.55995,
   "environment": "traffic",
   "scene": "traffic",
   "type": "hls",
   "src": "https://cctv-dishub.tangerangkab.go.id/storage/video/01jzvqtpxmrvd9pcbbsh2jq61q/01jzvqtpxmrvd9pcbbsh2jq61q.m3u8",
   "verified": true,
   "last_ok": "2026-07-16T03:24:19+00:00"
  },
  {
   "id": "e13ea7551032",
   "name": "ID - Banten - Tangerang - Jl.Pemda Tigaraksa",
   "country": "ID",
   "lat": -6.22657,
   "lon": 106.50548,
   "environment": "traffic",
   "scene": "traffic",
   "type": "hls",
   "src": "https://cctv-dishub.tangerangkab.go.id/storage/video/01jzvpeyhgex8qb9j5h2dct3a7/01jzvpeyhgex8qb9j5h2dct3a7.m3u8",
   "verified": true,
   "last_ok": "2026-07-16T03:24:19+00:00"
  },
  {
   "id": "1f98ff7e63b0",
   "name": "ID - Banten - Tangerang - Kecamatan Mauk",
   "country": "ID",
   "lat": -6.0581,
   "lon": 106.51221,
   "environment": "traffic",
   "scene": "traffic",
   "type": "hls",
   "src": "https://cctv-dishub.tangerangkab.go.id/storage/video/01jzvqax0cms7wh04jqhw61t3r/01jzvqax0cms7wh04jqhw61t3r.m3u8",
   "verified": true,
   "last_ok": "2026-07-16T03:24:19+00:00"
  },
  {
   "id": "95d47f08893f",
   "name": "ID - Banten - Tangerang - Pemda Tigaraksa",
   "country": "ID",
   "lat": -6.27118,
   "lon": 106.4844,
   "environment": "traffic",
   "scene": "traffic",
   "type": "hls",
   "src": "https://cctv-dishub.tangerangkab.go.id/storage/video/01jsrev0qphd8m3v37rqf1xf9y/01jsrev0qphd8m3v37rqf1xf9y.m3u8",
   "verified": true,
   "last_ok": "2026-07-16T03:24:19+00:00"
  },
  {
   "id": "c9e80075cf68",
   "name": "ID - Banten - Tangerang - Simpang Adiyasa 1",
   "country": "ID",
   "lat": -6.32625,
   "lon": 106.41829,
   "environment": "traffic",
   "scene": "traffic",
   "type": "hls",
   "src": "https://cctv-dishub.tangerangkab.go.id/storage/video/01jsrefb2z1e8y217vqdn6q60f/01jsrefb2z1e8y217vqdn6q60f.m3u8",
   "verified": true,
   "last_ok": "2026-07-16T03:24:19+00:00"
  },
  {
   "id": "d0b48d3659c4",
   "name": "ID - Banten - Tangerang - Simpang Bugel Tigaraksa",
   "country": "ID",
   "lat": -6.26189,
   "lon": 106.4838,
   "environment": "traffic",
   "scene": "traffic",
   "type": "hls",
   "src": "https://cctv-dishub.tangerangkab.go.id/storage/video/01k4mapmw669p23ks3dkpkb066/01k4mapmw669p23ks3dkpkb066.m3u8",
   "verified": true,
   "last_ok": "2026-07-16T03:24:19+00:00"
  },
  {
   "id": "db28c5919bfb",
   "name": "ID - Banten - Tangerang - Simpang Dadap 1",
   "country": "ID",
   "lat": -6.09238,
   "lon": 106.70851,
   "environment": "traffic",
   "scene": "traffic",
   "type": "hls",
   "src": "https://cctv-dishub.tangerangkab.go.id/storage/video/01jsrcpqn62mej02bc0h565epz/01jsrcpqn62mej02bc0h565epz.m3u8",
   "verified": true,
   "last_ok": "2026-07-16T03:24:19+00:00"
  },
  {
   "id": "b1159f114491",
   "name": "ID - Banten - Tangerang - Simpang Islamic 1",
   "country": "ID",
   "lat": -6.22883,
   "lon": 106.61564,
   "environment": "traffic",
   "scene": "traffic",
   "type": "hls",
   "src": "https://cctv-dishub.tangerangkab.go.id/storage/video/01jsrc5g3cz9wsb0305zte4h04/01jsrc5g3cz9wsb0305zte4h04.m3u8",
   "verified": true,
   "last_ok": "2026-07-16T03:24:19+00:00"
  },
  {
   "id": "f7e00a3e6a33",
   "name": "ID - Banten - Tangerang - Simpang Legok 1",
   "country": "ID",
   "lat": -6.32828,
   "lon": 106.57712,
   "environment": "traffic",
   "scene": "traffic",
   "type": "hls",
   "src": "https://cctv-dishub.tangerangkab.go.id/storage/video/01jsrdvkp3ssgqrtemf8kn8gv6/01jsrdvkp3ssgqrtemf8kn8gv6.m3u8",
   "verified": true,
   "last_ok": "2026-07-16T03:24:19+00:00"
  },
  {
   "id": "d7ab8adb2135",
   "name": "ID - Banten - Tangerang - Simpang Pasar Kemis 1",
   "country": "ID",
   "lat": -6.17054,
   "lon": 106.5306,
   "environment": "traffic",
   "scene": "traffic",
   "type": "hls",
   "src": "https://cctv-dishub.tangerangkab.go.id/storage/video/01jsr0t8vyed4mcezqccqfngha/01jsr0t8vyed4mcezqccqfngha.m3u8",
   "verified": true,
   "last_ok": "2026-07-16T03:24:19+00:00"
  },
  {
   "id": "2b013b5d5c8d",
   "name": "ID - Banten - Tangerang - Simpang Rajeg Kukun 1",
   "country": "ID",
   "lat": -6.12961,
   "lon": 106.52664,
   "environment": "traffic",
   "scene": "traffic",
   "type": "hls",
   "src": "https://cctv-dishub.tangerangkab.go.id/storage/video/01jsr079n4btzjemf6r9br473w/01jsr079n4btzjemf6r9br473w.m3u8",
   "verified": true,
   "last_ok": "2026-07-16T03:24:19+00:00"
  },
  {
   "id": "4bb4f2d45acb",
   "name": "ID - Banten - Tangerang - Simpang Sepatan 1",
   "country": "ID",
   "lat": -6.11887,
   "lon": 106.57561,
   "environment": "traffic",
   "scene": "traffic",
   "type": "hls",
   "src": "https://cctv-dishub.tangerangkab.go.id/storage/video/01jsr485tfw1cwwa1v6c3jpgfd/01jsr485tfw1cwwa1v6c3jpgfd.m3u8",
   "verified": true,
   "last_ok": "2026-07-16T03:24:19+00:00"
  },
  {
   "id": "a4dde17e8a7a",
   "name": "ID - DI Yogyakarta - Bantul - Bendung Klegen",
   "country": "ID",
   "lat": -7.95323,
   "lon": 110.32568,
   "environment": "traffic",
   "scene": "traffic",
   "type": "hls",
   "src": "https://stream.bantulkab.go.id/memfs/a293d997-0258-4317-ac84-0b1bc4abf14c.m3u8",
   "verified": true,
   "last_ok": "2026-07-16T03:24:19+00:00"
  },
  {
   "id": "935f90e4819d",
   "name": "ID - DI Yogyakarta - Yogyakarta - Depan DPRD Pos Security",
   "country": "ID",
   "lat": -7.79706,
   "lon": 110.39234,
   "environment": "traffic",
   "scene": "traffic",
   "type": "hls",
   "src": "https://cctvjss.jogjakota.go.id/dprd-kota/depan-dprd-pos-security.stream/playlist.m3u8",
   "verified": true,
   "last_ok": "2026-07-16T03:24:19+00:00"
  },
  {
   "id": "e9f98c5f6b83",
   "name": "ID - DI Yogyakarta - Yogyakarta - Gerbang Masuk Utara V. Timur (Luar)",
   "country": "ID",
   "lat": -7.79926,
   "lon": 110.39086,
   "environment": "traffic",
   "scene": "traffic",
   "type": "hls",
   "src": "https://cctvjss.jogjakota.go.id/balaikota/Balaikota_Gerbang_Masuk_Utara_View_Timur-Luar.stream/playlist.m3u8",
   "verified": true,
   "last_ok": "2026-07-16T03:24:19+00:00"
  },
  {
   "id": "85126b340348",
   "name": "ID - DI Yogyakarta - Yogyakarta - Gerbang Timur PKK V. Selatan (Luar)",
   "country": "ID",
   "lat": -7.80052,
   "lon": 110.39218,
   "environment": "traffic",
   "scene": "traffic",
   "type": "hls",
   "src": "https://cctvjss.jogjakota.go.id/balaikota/Balaikota_Gerbang_Timur_PKK_View_Selatan-Luar.stream/playlist.m3u8",
   "verified": true,
   "last_ok": "2026-07-16T03:24:19+00:00"
  },
  {
   "id": "27309be6a698",
   "name": "ID - DI Yogyakarta - Yogyakarta - Jl. Ahmad Jazuli (Apotek K24)",
   "country": "ID",
   "lat": -7.78919,
   "lon": 110.36967,
   "environment": "traffic",
   "scene": "traffic",
   "type": "hls",
   "src": "https://cctvjss.jogjakota.go.id/kotabaru/ANPR-Jl-Ahmad-Jazuli.stream/playlist.m3u8",
   "verified": true,
   "last_ok": "2026-07-16T03:24:19+00:00"
  },
  {
   "id": "860d26c36fb9",
   "name": "ID - DI Yogyakarta - Yogyakarta - Jl. F.M. Noto (Gardu ANIEM)",
   "country": "ID",
   "lat": -7.78683,
   "lon": 110.37217,
   "environment": "traffic",
   "scene": "traffic",
   "type": "hls",
   "src": "https://cctvjss.jogjakota.go.id/kotabaru/ANPR-Jl-FM-Noto-Gardu-Aniem.stream/playlist.m3u8",
   "verified": true,
   "last_ok": "2026-07-16T03:24:19+00:00"
  },
  {
   "id": "dbd2f701688a",
   "name": "ID - DI Yogyakarta - Yogyakarta - Jl. Juadi (Pojok Utara-Barat Telkom)",
   "country": "ID",
   "lat": -7.78582,
   "lon": 110.37457,
   "environment": "traffic",
   "scene": "traffic",
   "type": "hls",
   "src": "https://cctvjss.jogjakota.go.id/kotabaru/Jl-Juadi.stream/playlist.m3u8",
   "verified": true,
   "last_ok": "2026-07-16T03:24:19+00:00"
  },
  {
   "id": "bf8ea3b1b9dc",
   "name": "ID - DI Yogyakarta - Yogyakarta - Jl. KH. Ahmad Dahlan V. Barat (Barat Kospin Jasa)",
   "country": "ID",
   "lat": -7.80115,
   "lon": 110.361,
   "environment": "traffic",
   "scene": "traffic",
   "type": "hls",
   "src": "https://cctvjss.jogjakota.go.id/tps-liar/S3_Nyai_Ahmad_Dahlan.stream/playlist.m3u8",
   "verified": true,
   "last_ok": "2026-07-16T03:24:19+00:00"
  },
  {
   "id": "62653b141b7b",
   "name": "ID - DI Yogyakarta - Yogyakarta - Jl. Kenari V. Barat (Timur SMKN 6)",
   "country": "ID",
   "lat": -7.79726,
   "lon": 110.38264,
   "environment": "traffic",
   "scene": "traffic",
   "type": "hls",
   "src": "https://cctvjss.jogjakota.go.id/tps-liar/Jalan_Kenari.stream/playlist.m3u8",
   "verified": true,
   "last_ok": "2026-07-16T03:24:19+00:00"
  },
  {
   "id": "40e68ddd780d",
   "name": "ID - DI Yogyakarta - Yogyakarta - Jl. MT. Haryono V. Barat (Barat Hotel Ashtary)",
   "country": "ID",
   "lat": -7.81348,
   "lon": 110.35969,
   "environment": "traffic",
   "scene": "traffic",
   "type": "hls",
   "src": "https://cctvjss.jogjakota.go.id/tps-liar/Jalan_MT_Haryono.stream/playlist.m3u8",
   "verified": true,
   "last_ok": "2026-07-16T03:24:19+00:00"
  },
  {
   "id": "574bdebcc00d",
   "name": "ID - DI Yogyakarta - Yogyakarta - Jl. Mas Suharto V. Selatan (Depan LASERCOM)",
   "country": "ID",
   "lat": -7.7932,
   "lon": 110.37106,
   "environment": "traffic",
   "scene": "traffic",
   "type": "hls",
   "src": "https://cctvjss.jogjakota.go.id/tps-liar/S3_Jl_Mas Suharto-Jl_Tegalpanggung.stream/playlist.m3u8",
   "verified": true,
   "last_ok": "2026-07-16T03:24:19+00:00"
  },
  {
   "id": "ad6e64f36c58",
   "name": "ID - DI Yogyakarta - Yogyakarta - Jl. Mas Suharto V. Utara (Barat Sari Wangi Parfum)",
   "country": "ID",
   "lat": -7.79325,
   "lon": 110.37159,
   "environment": "traffic",
   "scene": "traffic",
   "type": "hls",
   "src": "https://cctvjss.jogjakota.go.id/tps-liar/S3_Jl_Mas Suharto-Jl_Tukangan.stream/playlist.m3u8",
   "verified": true,
   "last_ok": "2026-07-16T03:24:19+00:00"
  },
  {
   "id": "a1a7ad42608a",
   "name": "ID - DI Yogyakarta - Yogyakarta - Jl. Nyoman Oka (Gereja Kotabaru)",
   "country": "ID",
   "lat": -7.7879,
   "lon": 110.37133,
   "environment": "traffic",
   "scene": "traffic",
   "type": "hls",
   "src": "https://cctvjss.jogjakota.go.id/kotabaru/Jl-Nyoman-Oka.stream/playlist.m3u8",
   "verified": true,
   "last_ok": "2026-07-16T03:24:19+00:00"
  },
  {
   "id": "606f52b1a49d",
   "name": "ID - DI Yogyakarta - Yogyakarta - Jl. Wardhani (Selatan-Timur SMPN 5)",
   "country": "ID",
   "lat": -7.78732,
   "lon": 110.37538,
   "environment": "traffic",
   "scene": "traffic",
   "type": "hls",
   "src": "https://cctvjss.jogjakota.go.id/kotabaru/ANPR-Jl-Wardhani.stream/playlist.m3u8",
   "verified": true,
   "last_ok": "2026-07-16T03:24:19+00:00"
  },
  {
   "id": "4c14ec2d2d41",
   "name": "ID - DI Yogyakarta - Yogyakarta - Jl. Yos Sudarso (Mie Gacoan)",
   "country": "ID",
   "lat": -7.78816,
   "lon": 110.37492,
   "environment": "traffic",
   "scene": "traffic",
   "type": "hls",
   "src": "https://cctvjss.jogjakota.go.id/kotabaru/ANPR-Jl-Yos-Sudarso.stream/playlist.m3u8",
   "verified": true,
   "last_ok": "2026-07-16T03:24:19+00:00"
  },
  {
   "id": "c434d2c1f986",
   "name": "ID - DI Yogyakarta - Yogyakarta - KemMJ-Jalan Selatan Kemantren",
   "country": "ID",
   "lat": -7.82077,
   "lon": 110.3617,
   "environment": "traffic",
   "scene": "traffic",
   "type": "hls",
   "src": "https://cctvjss.jogjakota.go.id/kecamatan/KemMJ-JalanSelatanKemantren.stream/playlist.m3u8",
   "verified": true,
   "last_ok": "2026-07-16T03:24:19+00:00"
  },
  {
   "id": "2c8beae0022f",
   "name": "ID - DI Yogyakarta - Yogyakarta - KemNG-Wahid Hasyim V. Selatan",
   "country": "ID",
   "lat": -7.80601,
   "lon": 110.356,
   "environment": "traffic",
   "scene": "traffic",
   "type": "hls",
   "src": "https://cctvjss.jogjakota.go.id/kecamatan/KemNG-Wahid_Hasyim_V_Selatan.stream/playlist.m3u8",
   "verified": true,
   "last_ok": "2026-07-16T03:24:19+00:00"
  },
  {
   "id": "605ff7c23ca4",
   "name": "ID - DI Yogyakarta - Yogyakarta - Malioboro_Selatan_Teteg",
   "country": "ID",
   "lat": -7.78997,
   "lon": 110.36603,
   "environment": "traffic",
   "scene": "traffic",
   "type": "hls",
   "src": "https://cctvjss.jogjakota.go.id/malioboro/Malioboro_1_Selatan_Teteg.stream/playlist.m3u8",
   "verified": true,
   "last_ok": "2026-07-16T03:24:19+00:00"
  },
  {
   "id": "ec59b8584361",
   "name": "ID - DI Yogyakarta - Yogyakarta - Malioboro_Terang_Bulan",
   "country": "ID",
   "lat": -7.79589,
   "lon": 110.3654,
   "environment": "traffic",
   "scene": "traffic",
   "type": "hls",
   "src": "https://cctvjss.jogjakota.go.id/malioboro/Malioboro_11_Terang_Bulan.stream/playlist.m3u8",
   "verified": true,
   "last_ok": "2026-07-16T03:24:19+00:00"
  },
  {
   "id": "3f7536f0786f",
   "name": "ID - DI Yogyakarta - Yogyakarta - Malioboro_Utara_Inna_Malioboro",
   "country": "ID",
   "lat": -7.7902,
   "lon": 110.36625,
   "environment": "traffic",
   "scene": "traffic",
   "type": "hls",
   "src": "https://cctvjss.jogjakota.go.id/malioboro/Malioboro_21_Utara_Inna_Malioboro.stream/playlist.m3u8",
   "verified": true,
   "last_ok": "2026-07-16T03:24:19+00:00"
  },
  {
   "id": "80917b2e1ff7",
   "name": "ID - DI Yogyakarta - Yogyakarta - Nol Km. - Gd. Agung",
   "country": "ID",
   "lat": -7.80103,
   "lon": 110.36495,
   "environment": "traffic",
   "scene": "traffic",
   "type": "hls",
   "src": "https://cctvjss.jogjakota.go.id/malioboro/NolKm_GdAgung.stream/playlist.m3u8",
   "verified": true,
   "last_ok": "2026-07-16T03:24:19+00:00"
  },
  {
   "id": "5323b488f155",
   "name": "ID - DI Yogyakarta - Yogyakarta - Optic Tugu",
   "country": "ID",
   "lat": -7.78761,
   "lon": 110.36636,
   "environment": "traffic",
   "scene": "traffic",
   "type": "hls",
   "src": "https://cctvjss.jogjakota.go.id/margo-utomo/Optic-Tugu.stream/playlist.m3u8",
   "verified": true,
   "last_ok": "2026-07-16T03:24:19+00:00"
  },
  {
   "id": "5cfe9ee08f41",
   "name": "ID - DI Yogyakarta - Yogyakarta - Parkiran Ngabean",
   "country": "ID",
   "lat": -7.8013,
   "lon": 110.35624,
   "environment": "traffic",
   "scene": "traffic",
   "type": "hls",
   "src": "https://cctvjss.jogjakota.go.id/atcs/ATCS_Parkiran_Ngabean.stream/playlist.m3u8",
   "verified": true,
   "last_ok": "2026-07-16T03:24:19+00:00"
  },
  {
   "id": "2d1c0d7aca7d",
   "name": "ID - DI Yogyakarta - Yogyakarta - Pasar Demangan View Selatan",
   "country": "ID",
   "lat": -7.78094,
   "lon": 110.38818,
   "environment": "traffic",
   "scene": "traffic",
   "type": "hls",
   "src": "https://cctvjss.jogjakota.go.id/atcs/ATCS_Pasar_Demangan_View_Selatan.stream/playlist.m3u8",
   "verified": true,
   "last_ok": "2026-07-16T03:24:19+00:00"
  },
  {
   "id": "6bf6a4efa5c1",
   "name": "ID - DI Yogyakarta - Yogyakarta - RTHP Brontokusuman (blkg Kel) 1",
   "country": "ID",
   "lat": -7.82298,
   "lon": 110.36959,
   "environment": "traffic",
   "scene": "traffic",
   "type": "hls",
   "src": "https://cctvjss.jogjakota.go.id/rthp/rthp_brontokusuman_blkgKel_1.stream/playlist.m3u8",
   "verified": true,
   "last_ok": "2026-07-16T03:24:19+00:00"
  },
  {
   "id": "9a6807c27788",
   "name": "ID - DI Yogyakarta - Yogyakarta - RTHP Bumen",
   "country": "ID",
   "lat": -7.8265,
   "lon": 110.40352,
   "environment": "traffic",
   "scene": "traffic",
   "type": "hls",
   "src": "https://cctvjss.jogjakota.go.id/rthp/rthp_bumen.stream/playlist.m3u8",
   "verified": true,
   "last_ok": "2026-07-16T03:24:19+00:00"
  },
  {
   "id": "7f4932119ea2",
   "name": "ID - DI Yogyakarta - Yogyakarta - RTHP Gajah Wong Edu Park 1",
   "country": "ID",
   "lat": -7.81749,
   "lon": 110.39348,
   "environment": "traffic",
   "scene": "traffic",
   "type": "hls",
   "src": "https://cctvjss.jogjakota.go.id/rthp/rthp_gajahwong_edupark_1.stream/playlist.m3u8",
   "verified": true,
   "last_ok": "2026-07-16T03:24:19+00:00"
  },
  {
   "id": "c5678f51afc1",
   "name": "ID - DI Yogyakarta - Yogyakarta - RTHP Gunungketur 1",
   "country": "ID",
   "lat": -7.79851,
   "lon": 110.37588,
   "environment": "traffic",
   "scene": "traffic",
   "type": "hls",
   "src": "https://cctvjss.jogjakota.go.id/rthp/rthp_gunungketur_1.stream/playlist.m3u8",
   "verified": true,
   "last_ok": "2026-07-16T03:24:19+00:00"
  },
  {
   "id": "e977aaffe26c",
   "name": "ID - DI Yogyakarta - Yogyakarta - RTHP Jopraban 1",
   "country": "ID",
   "lat": -7.80272,
   "lon": 110.35153,
   "environment": "traffic",
   "scene": "traffic",
   "type": "hls",
   "src": "https://cctvjss.jogjakota.go.id/rthp/rthp_jopraban_1.stream/playlist.m3u8",
   "verified": true,
   "last_ok": "2026-07-16T03:24:19+00:00"
  },
  {
   "id": "16db76b0e21f",
   "name": "ID - DI Yogyakarta - Yogyakarta - RTHP Klitren 2",
   "country": "ID",
   "lat": -7.78075,
   "lon": 110.38662,
   "environment": "traffic",
   "scene": "traffic",
   "type": "hls",
   "src": "https://cctvjss.jogjakota.go.id/rthp/rthp_klitren_2.stream/playlist.m3u8",
   "verified": true,
   "last_ok": "2026-07-16T03:24:19+00:00"
  },
  {
   "id": "db1862efce95",
   "name": "ID - DI Yogyakarta - Yogyakarta - RTHP Segoro Amarto Tegalrejo 2",
   "country": "ID",
   "lat": -7.79045,
   "lon": 110.34969,
   "environment": "traffic",
   "scene": "traffic",
   "type": "hls",
   "src": "https://cctvjss.jogjakota.go.id/rthp/rthp_segoro_amarto_tegalrejo_2.stream/playlist.m3u8",
   "verified": true,
   "last_ok": "2026-07-16T03:24:19+00:00"
  },
  {
   "id": "d83d7503ad49",
   "name": "ID - DI Yogyakarta - Yogyakarta - Simpang APMD (PTZ)",
   "country": "ID",
   "lat": -7.79197,
   "lon": 110.39164,
   "environment": "traffic",
   "scene": "traffic",
   "type": "hls",
   "src": "https://cctvjss.jogjakota.go.id/atcs/ATCS_apmd.stream/playlist.m3u8",
   "verified": true,
   "last_ok": "2026-07-16T03:24:19+00:00"
  },
  {
   "id": "2a4b2f1a1e29",
   "name": "ID - DI Yogyakarta - Yogyakarta - Simpang APPI - JL.Mentri Supeno",
   "country": "ID",
   "lat": -7.81617,
   "lon": 110.38319,
   "environment": "traffic",
   "scene": "traffic",
   "type": "hls",
   "src": "https://cctvjss.jogjakota.go.id/atcs/ATCS_Lampu_Merah_JlMentriSupeno.stream/playlist.m3u8",
   "verified": true,
   "last_ok": "2026-07-16T03:24:19+00:00"
  },
  {
   "id": "25d5626949ee",
   "name": "ID - DI Yogyakarta - Yogyakarta - Simpang Amongrogo View Timur",
   "country": "ID",
   "lat": -7.7974,
   "lon": 110.38367,
   "environment": "traffic",
   "scene": "traffic",
   "type": "hls",
   "src": "https://cctvjss.jogjakota.go.id/atcs/ATCS_Simpang_Amongrogo_View_Timur.stream/playlist.m3u8",
   "verified": true,
   "last_ok": "2026-07-16T03:24:19+00:00"
  },
  {
   "id": "79bfa356c46d",
   "name": "ID - DI Yogyakarta - Yogyakarta - Simpang Atmosukarto (PTZ)",
   "country": "ID",
   "lat": -7.78826,
   "lon": 110.37833,
   "environment": "traffic",
   "scene": "traffic",
   "type": "hls",
   "src": "https://cctvjss.jogjakota.go.id/atcs/ATCS_Simpang_Atmosukarto.stream/playlist.m3u8",
   "verified": true,
   "last_ok": "2026-07-16T03:24:19+00:00"
  },
  {
   "id": "479173307b30",
   "name": "ID - DI Yogyakarta - Yogyakarta - Simpang BPK (PTZ)",
   "country": "ID",
   "lat": -7.79079,
   "lon": 110.3538,
   "environment": "traffic",
   "scene": "traffic",
   "type": "hls",
   "src": "https://cctvjss.jogjakota.go.id/atcs/ATCS_bpk.stream/playlist.m3u8",
   "verified": true,
   "last_ok": "2026-07-16T03:24:19+00:00"
  },
  {
   "id": "a2618ec3f555",
   "name": "ID - DI Yogyakarta - Yogyakarta - Simpang Balaikota View Utara-Barat",
   "country": "ID",
   "lat": -7.79962,
   "lon": 110.3923,
   "environment": "traffic",
   "scene": "traffic",
   "type": "hls",
   "src": "https://cctvjss.jogjakota.go.id/atcs/ATCS_Simpang_Balaikota_View_Timur.stream/playlist.m3u8",
   "verified": true,
   "last_ok": "2026-07-16T03:24:19+00:00"
  },
  {
   "id": "76426bfec814",
   "name": "ID - DI Yogyakarta - Yogyakarta - Simpang Basen",
   "country": "ID",
   "lat": -7.82047,
   "lon": 110.40082,
   "environment": "traffic",
   "scene": "traffic",
   "type": "hls",
   "src": "https://cctvjss.jogjakota.go.id/atcs/ATCS_Simpang_Basen.stream/playlist.m3u8",
   "verified": true,
   "last_ok": "2026-07-16T03:24:19+00:00"
  },
  {
   "id": "62eb4e4ef0ef",
   "name": "ID - DI Yogyakarta - Yogyakarta - Simpang Bausasran (PTZ)",
   "country": "ID",
   "lat": -7.79683,
   "lon": 110.3726,
   "environment": "traffic",
   "scene": "traffic",
   "type": "hls",
   "src": "https://cctvjss.jogjakota.go.id/atcs/ATCS_S4_Bausasran.stream/playlist.m3u8",
   "verified": true,
   "last_ok": "2026-07-16T03:24:19+00:00"
  },
  {
   "id": "101bf520d16b",
   "name": "ID - DI Yogyakarta - Yogyakarta - Simpang Borobudur Plaza",
   "country": "ID",
   "lat": -7.77838,
   "lon": 110.36106,
   "environment": "traffic",
   "scene": "traffic",
   "type": "hls",
   "src": "https://cctvjss.jogjakota.go.id/atcs/ATCS_Simpang_Borobudur_Plaza.stream/playlist.m3u8",
   "verified": true,
   "last_ok": "2026-07-16T03:24:19+00:00"
  },
  {
   "id": "f18cf007c021",
   "name": "ID - DI Yogyakarta - Yogyakarta - Simpang DeBritto View Utara",
   "country": "ID",
   "lat": -7.78321,
   "lon": 110.39224,
   "environment": "traffic",
   "scene": "traffic",
   "type": "hls",
   "src": "https://cctvjss.jogjakota.go.id/atcs/ATCS_Simpang_DeBritto_View_Utara.stream/playlist.m3u8",
   "verified": true,
   "last_ok": "2026-07-16T03:24:19+00:00"
  },
  {
   "id": "58e4e90d8366",
   "name": "ID - DI Yogyakarta - Yogyakarta - Simpang Gambiran 1 - Jl.Veteran",
   "country": "ID",
   "lat": -7.81439,
   "lon": 110.39169,
   "environment": "traffic",
   "scene": "traffic",
   "type": "hls",
   "src": "https://cctvjss.jogjakota.go.id/atcs/ATCS_Lampu_Merah_Gambiran1.stream/playlist.m3u8",
   "verified": true,
   "last_ok": "2026-07-16T03:24:19+00:00"
  },
  {
   "id": "6d66922d2562",
   "name": "ID - DI Yogyakarta - Yogyakarta - Simpang Gedongkuning (PTZ)",
   "country": "ID",
   "lat": -7.80173,
   "lon": 110.40141,
   "environment": "traffic",
   "scene": "traffic",
   "type": "hls",
   "src": "https://cctvjss.jogjakota.go.id/atcs/ATCS_Gedongkuning.stream/playlist.m3u8",
   "verified": true,
   "last_ok": "2026-07-16T03:24:19+00:00"
  },
  {
   "id": "9dc9e2fbd6c1",
   "name": "ID - DI Yogyakarta - Yogyakarta - Simpang Glagahsari",
   "country": "ID",
   "lat": -7.80205,
   "lon": 110.38908,
   "environment": "traffic",
   "scene": "traffic",
   "type": "hls",
   "src": "https://cctvjss.jogjakota.go.id/atcs/ATCS_Glagahsari.stream/playlist.m3u8",
   "verified": true,
   "last_ok": "2026-07-16T03:24:19+00:00"
  },
  {
   "id": "324be5959133",
   "name": "ID - DI Yogyakarta - Yogyakarta - Simpang Gondomanan View Selatan",
   "country": "ID",
   "lat": -7.80156,
   "lon": 110.36928,
   "environment": "traffic",
   "scene": "traffic",
   "type": "hls",
   "src": "https://cctvjss.jogjakota.go.id/atcs/ATCS_Simpang_Gondomanan_View_Selatan.stream/playlist.m3u8",
   "verified": true,
   "last_ok": "2026-07-16T03:24:19+00:00"
  },
  {
   "id": "77a00f2bc5ef",
   "name": "ID - DI Yogyakarta - Yogyakarta - Simpang Gramedia (PTZ)",
   "country": "ID",
   "lat": -7.78286,
   "lon": 110.37481,
   "environment": "traffic",
   "scene": "traffic",
   "type": "hls",
   "src": "https://cctvjss.jogjakota.go.id/atcs/ATCS_Gramedia_2.stream/playlist.m3u8",
   "verified": true,
   "last_ok": "2026-07-16T03:24:19+00:00"
  },
  {
   "id": "a6adb9aae843",
   "name": "ID - DI Yogyakarta - Yogyakarta - Simpang Jati Kencana (PTZ)",
   "country": "ID",
   "lat": -7.78172,
   "lon": 110.35258,
   "environment": "traffic",
   "scene": "traffic",
   "type": "hls",
   "src": "https://cctvjss.jogjakota.go.id/atcs/ATCS_Simpang_JatiKencana.stream/playlist.m3u8",
   "verified": true,
   "last_ok": "2026-07-16T03:24:19+00:00"
  },
  {
   "id": "bb378e88f768",
   "name": "ID - DI Yogyakarta - Yogyakarta - Simpang Jogokariyan V. Utara",
   "country": "ID",
   "lat": -7.82463,
   "lon": 110.36762,
   "environment": "traffic",
   "scene": "traffic",
   "type": "hls",
   "src": "https://cctvjss.jogjakota.go.id/atcs/ATCS_Simpang_Jogokariyan_View_Utara.stream/playlist.m3u8",
   "verified": true,
   "last_ok": "2026-07-16T03:24:19+00:00"
  },
  {
   "id": "ed6803775809",
   "name": "ID - DI Yogyakarta - Yogyakarta - Simpang Jokteng Kulon (PTZ)",
   "country": "ID",
   "lat": -7.81294,
   "lon": 110.35594,
   "environment": "traffic",
   "scene": "traffic",
   "type": "hls",
   "src": "https://cctvjss.jogjakota.go.id/atcs/ATCS_joktengkulon.stream/playlist.m3u8",
   "verified": true,
   "last_ok": "2026-07-16T03:24:19+00:00"
  },
  {
   "id": "445c2282bd00",
   "name": "ID - DI Yogyakarta - Yogyakarta - Simpang KM Nol (PTZ)",
   "country": "ID",
   "lat": -7.80108,
   "lon": 110.36475,
   "environment": "traffic",
   "scene": "traffic",
   "type": "hls",
   "src": "https://cctvjss.jogjakota.go.id/atcs/ATCS_kmnol.stream/playlist.m3u8",
   "verified": true,
   "last_ok": "2026-07-16T03:24:19+00:00"
  },
  {
   "id": "eb5410e8a4a7",
   "name": "ID - DI Yogyakarta - Yogyakarta - Simpang Karang Tunggal (S3 Jl. Kol.Sugiyono - Jl. Sisingamangaraja) 1",
   "country": "ID",
   "lat": -7.81519,
   "lon": 110.37321,
   "environment": "traffic",
   "scene": "traffic",
   "type": "hls",
   "src": "https://cctvjss.jogjakota.go.id/atcs/ATCS_Lampu_Merah_SopMerah1.stream/playlist.m3u8",
   "verified": true,
   "last_ok": "2026-07-16T03:24:19+00:00"
  },
  {
   "id": "273250288b5b",
   "name": "ID - DI Yogyakarta - Yogyakarta - Simpang Kiai Mojo 1 (Barat)",
   "country": "ID",
   "lat": -7.78273,
   "lon": 110.35791,
   "environment": "traffic",
   "scene": "traffic",
   "type": "hls",
   "src": "https://cctvjss.jogjakota.go.id/atcs/ATCS_Lampu_Merah_KyaiMojo.stream/playlist.m3u8",
   "verified": true,
   "last_ok": "2026-07-16T03:24:19+00:00"
  },
  {
   "id": "1a2719a26b5d",
   "name": "ID - DI Yogyakarta - Yogyakarta - Simpang Letjen Suprapto-KS. Tubun V. Selatan",
   "country": "ID",
   "lat": -7.79739,
   "lon": 110.35645,
   "environment": "traffic",
   "scene": "traffic",
   "type": "hls",
   "src": "https://cctvjss.jogjakota.go.id/atcs/ATCS_Simpang_Letjen_Suprapto_KS_Tubun_View_Selatan.stream/playlist.m3u8",
   "verified": true,
   "last_ok": "2026-07-16T03:24:19+00:00"
  },
  {
   "id": "b019d8e305ca",
   "name": "ID - DI Yogyakarta - Yogyakarta - Simpang Mantrigawen (PTZ)",
   "country": "ID",
   "lat": -7.80896,
   "lon": 110.36902,
   "environment": "traffic",
   "scene": "traffic",
   "type": "hls",
   "src": "https://cctvjss.jogjakota.go.id/atcs/ATCS_Mantrigawen_PTZ.stream/playlist.m3u8",
   "verified": true,
   "last_ok": "2026-07-16T03:24:19+00:00"
  },
  {
   "id": "c89217207b35",
   "name": "ID - DI Yogyakarta - Yogyakarta - Simpang Mirota (PTZ)",
   "country": "ID",
   "lat": -7.77609,
   "lon": 110.37438,
   "environment": "traffic",
   "scene": "traffic",
   "type": "hls",
   "src": "https://cctvjss.jogjakota.go.id/atcs/ATCS_mirota.stream/playlist.m3u8",
   "verified": true,
   "last_ok": "2026-07-16T03:24:19+00:00"
  },
  {
   "id": "be2a0e8a3fb5",
   "name": "ID - DI Yogyakarta - Yogyakarta - Simpang Pasar Gading 1 (Timur)",
   "country": "ID",
   "lat": -7.81396,
   "lon": 110.36288,
   "environment": "traffic",
   "scene": "traffic",
   "type": "hls",
   "src": "https://cctvjss.jogjakota.go.id/atcs/ATCS_Lampu_Merah_PasarGading1.stream/playlist.m3u8",
   "verified": true,
   "last_ok": "2026-07-16T03:24:19+00:00"
  },
  {
   "id": "528ae0dc8897",
   "name": "ID - DI Yogyakarta - Yogyakarta - Simpang Pasar Telo (PTZ)",
   "country": "ID",
   "lat": -7.82381,
   "lon": 110.37315,
   "environment": "traffic",
   "scene": "traffic",
   "type": "hls",
   "src": "https://cctvjss.jogjakota.go.id/atcs/ATCS_Pasar_Telo_PTZ.stream/playlist.m3u8",
   "verified": true,
   "last_ok": "2026-07-16T03:24:19+00:00"
  },
  {
   "id": "00e7ebc1489b",
   "name": "ID - DI Yogyakarta - Yogyakarta - Simpang Patangpuluhan (PTZ)",
   "country": "ID",
   "lat": -7.80786,
   "lon": 110.35039,
   "environment": "traffic",
   "scene": "traffic",
   "type": "hls",
   "src": "https://cctvjss.jogjakota.go.id/atcs/ATCS_Simpang_Patangpuluhan.stream/playlist.m3u8",
   "verified": true,
   "last_ok": "2026-07-16T03:24:19+00:00"
  },
  {
   "id": "e0e483e1970f",
   "name": "ID - DI Yogyakarta - Yogyakarta - Simpang Pingit 1 - Jl.Tentara Pelajar",
   "country": "ID",
   "lat": -7.78273,
   "lon": 110.36065,
   "environment": "traffic",
   "scene": "traffic",
   "type": "hls",
   "src": "https://cctvjss.jogjakota.go.id/atcs/ATCS_Lampu_Merah_Pingit1.stream/playlist.m3u8",
   "verified": true,
   "last_ok": "2026-07-16T03:24:19+00:00"
  },
  {
   "id": "34c639d32903",
   "name": "ID - DI Yogyakarta - Yogyakarta - Simpang Rejowinangun View Timur",
   "country": "ID",
   "lat": -7.81071,
   "lon": 110.40206,
   "environment": "traffic",
   "scene": "traffic",
   "type": "hls",
   "src": "https://cctvjss.jogjakota.go.id/atcs/ATCS_Simpang_Rejowinangun_View_Timur.stream/playlist.m3u8",
   "verified": true,
   "last_ok": "2026-07-16T03:24:19+00:00"
  },
  {
   "id": "6c19edb74243",
   "name": "ID - DI Yogyakarta - Yogyakarta - Simpang SGM (PTZ)",
   "country": "ID",
   "lat": -7.80218,
   "lon": 110.39521,
   "environment": "traffic",
   "scene": "traffic",
   "type": "hls",
   "src": "https://cctvjss.jogjakota.go.id/atcs/ATCS_simpangsgm.stream/playlist.m3u8",
   "verified": true,
   "last_ok": "2026-07-16T03:24:19+00:00"
  },
  {
   "id": "d6637d51523d",
   "name": "ID - DI Yogyakarta - Yogyakarta - Simpang Sugeng Jeroni 1 - Jl.Sugeng Jeroni",
   "country": "ID",
   "lat": -7.81196,
   "lon": 110.34951,
   "environment": "traffic",
   "scene": "traffic",
   "type": "hls",
   "src": "https://cctvjss.jogjakota.go.id/atcs/ATCS_Lampu_Merah_SugengJeroni1.stream/playlist.m3u8",
   "verified": true,
   "last_ok": "2026-07-16T03:24:19+00:00"
  },
  {
   "id": "6dae16807737",
   "name": "ID - DI Yogyakarta - Yogyakarta - Simpang Terban View Timur",
   "country": "ID",
   "lat": -7.78284,
   "lon": 110.37217,
   "environment": "traffic",
   "scene": "traffic",
   "type": "hls",
   "src": "https://cctvjss.jogjakota.go.id/atcs/ATCS_Simpang_Terban_View_Timur.stream/playlist.m3u8",
   "verified": true,
   "last_ok": "2026-07-16T03:24:19+00:00"
  },
  {
   "id": "95c885d85617",
   "name": "ID - DI Yogyakarta - Yogyakarta - Simpang Wirosaban View Barat",
   "country": "ID",
   "lat": -7.82481,
   "lon": 110.37839,
   "environment": "traffic",
   "scene": "traffic",
   "type": "hls",
   "src": "https://cctvjss.jogjakota.go.id/atcs/ATCS_Simpang_Wirosaban_View_Barat.stream/playlist.m3u8",
   "verified": true,
   "last_ok": "2026-07-16T03:24:19+00:00"
  },
  {
   "id": "d69a82887cc3",
   "name": "ID - DI Yogyakarta - Yogyakarta - Sungai Gajah Wong 2",
   "country": "ID",
   "lat": -7.79091,
   "lon": 110.39598,
   "environment": "traffic",
   "scene": "traffic",
   "type": "hls",
   "src": "https://cctvjss.jogjakota.go.id/bpbd/BPBD_gajahwong2.stream/playlist.m3u8",
   "verified": true,
   "last_ok": "2026-07-16T03:24:19+00:00"
  },
  {
   "id": "6dde09789520",
   "name": "ID - DI Yogyakarta - Yogyakarta - Sungai Ngentak",
   "country": "ID",
   "lat": -7.72265,
   "lon": 110.38926,
   "environment": "traffic",
   "scene": "traffic",
   "type": "hls",
   "src": "https://cctvjss.jogjakota.go.id/bpbd/BPBD_ngentak.stream/playlist.m3u8",
   "verified": true,
   "last_ok": "2026-07-16T03:24:19+00:00"
  },
  {
   "id": "151b89b5057a",
   "name": "ID - DI Yogyakarta - Yogyakarta - Sungai Winongo",
   "country": "ID",
   "lat": -7.78949,
   "lon": 110.35666,
   "environment": "traffic",
   "scene": "traffic",
   "type": "hls",
   "src": "https://cctvjss.jogjakota.go.id/bpbd/BPBD_kaliwinongo.stream/playlist.m3u8",
   "verified": true,
   "last_ok": "2026-07-16T03:24:19+00:00"
  },
  {
   "id": "ab39179d622d",
   "name": "ID - DI Yogyakarta - Yogyakarta - Utara Balaikota V. Gerbang Masuk",
   "country": "ID",
   "lat": -7.79899,
   "lon": 110.39079,
   "environment": "traffic",
   "scene": "traffic",
   "type": "hls",
   "src": "https://cctvjss.jogjakota.go.id/balaikota/Balaikota_Utara_Balkot_V_Gerbang_Masuk.stream/playlist.m3u8",
   "verified": true,
   "last_ok": "2026-07-16T03:24:19+00:00"
  },
  {
   "id": "41aa602f8f74",
   "name": "ID - DI Yogyakarta - Yogyakarta - Utara Jl. Gowongan Lor",
   "country": "ID",
   "lat": -7.78547,
   "lon": 110.36665,
   "environment": "traffic",
   "scene": "traffic",
   "type": "hls",
   "src": "https://cctvjss.jogjakota.go.id/margo-utomo/Gowongan-Lor.stream/playlist.m3u8",
   "verified": true,
   "last_ok": "2026-07-16T03:24:19+00:00"
  },
  {
   "id": "3bb5b04fdde8",
   "name": "ID - DI Yogyakarta - Yogyakarta - Utara-Timur Gardena (Jl. Urip Sumoharjo) V. Timur",
   "country": "ID",
   "lat": -7.78282,
   "lon": 110.38125,
   "environment": "traffic",
   "scene": "traffic",
   "type": "hls",
   "src": "https://cctvjss.jogjakota.go.id/atcs/ATCS_Utara-Timur_Gardena_Jl_Urip Sumoharjo_V_Timur.stream/playlist.m3u8",
   "verified": true,
   "last_ok": "2026-07-16T03:24:19+00:00"
  },
  {
   "id": "37c10d8f4f48",
   "name": "ID - DI Yogyakarta - Yogyakarta - Wijaya Baru Travel",
   "country": "ID",
   "lat": -7.78623,
   "lon": 110.36651,
   "environment": "traffic",
   "scene": "traffic",
   "type": "hls",
   "src": "https://cctvjss.jogjakota.go.id/margo-utomo/Wijaya-Baru-Travel.stream/playlist.m3u8",
   "verified": true,
   "last_ok": "2026-07-16T03:24:19+00:00"
  },
  {
   "id": "c0bf5f4930cb",
   "name": "ID - DKI Jakarta - Jakarta - 22+400",
   "country": "ID",
   "lat": -6.296,
   "lon": 106.824,
   "environment": "traffic",
   "scene": "traffic",
   "type": "hls",
   "src": "https://pub.hk-opt.com/LiveApp/streams/269363542266933731794240.m3u8",
   "verified": true,
   "last_ok": "2026-07-16T03:24:19+00:00"
  },
  {
   "id": "13edaaf104ba",
   "name": "ID - DKI Jakarta - Jakarta - 23+600",
   "country": "ID",
   "lat": -6.291,
   "lon": 106.831,
   "environment": "traffic",
   "scene": "traffic",
   "type": "hls",
   "src": "https://pub.hk-opt.com/LiveApp/streams/101502919369166746058073.m3u8",
   "verified": true,
   "last_ok": "2026-07-16T03:24:19+00:00"
  },
  {
   "id": "0bb2bffa94cb",
   "name": "ID - DKI Jakarta - Jakarta - 24+150",
   "country": "ID",
   "lat": -6.166,
   "lon": 106.924,
   "environment": "traffic",
   "scene": "traffic",
   "type": "hls",
   "src": "https://camera.jtd.co.id/camera/share/tios/2/25/index.m3u8",
   "verified": true,
   "last_ok": "2026-07-16T03:24:19+00:00"
  },
  {
   "id": "2e34f2979b0b",
   "name": "ID - DKI Jakarta - Jakarta - 28+150",
   "country": "ID",
   "lat": -6.158,
   "lon": 106.932,
   "environment": "traffic",
   "scene": "traffic",
   "type": "hls",
   "src": "https://camera.jtd.co.id/camera/share/tios/1/61/index.m3u8",
   "verified": true,
   "last_ok": "2026-07-16T03:24:19+00:00"
  },
  {
   "id": "22df8d2850cb",
   "name": "ID - DKI Jakarta - Jakarta - 58+400 B",
   "country": "ID",
   "lat": -6.119,
   "lon": 106.883,
   "environment": "traffic",
   "scene": "traffic",
   "type": "hls",
   "src": "https://extstream.hk-opt2.com/LiveApp/streams/501264524429471982550467.m3u8",
   "verified": true,
   "last_ok": "2026-07-16T03:24:19+00:00"
  },
  {
   "id": "d6d1e93efa1b",
   "name": "ID - DKI Jakarta - Jakarta - GERBANG TOL CAKUNG",
   "country": "ID",
   "lat": -6.154,
   "lon": 106.936,
   "environment": "traffic",
   "scene": "traffic",
   "type": "hls",
   "src": "https://camera.jtd.co.id/camera/share/tios/2/81/index.m3u8",
   "verified": true,
   "last_ok": "2026-07-16T03:24:19+00:00"
  },
  {
   "id": "fd98d7f89db8",
   "name": "ID - DKI Jakarta - Jakarta - JORRS GT AMPERA 1",
   "country": "ID",
   "lat": -6.287,
   "lon": 106.835,
   "environment": "traffic",
   "scene": "traffic",
   "type": "hls",
   "src": "https://pub.hk-opt.com/LiveApp/streams/314944433014333275671534.m3u8",
   "verified": true,
   "last_ok": "2026-07-16T03:24:19+00:00"
  },
  {
   "id": "3ca14cfdab68",
   "name": "ID - DKI Jakarta - Jakarta - JORRS GT GEDONG 2",
   "country": "ID",
   "lat": -6.28,
   "lon": 106.84,
   "environment": "traffic",
   "scene": "traffic",
   "type": "hls",
   "src": "https://pub.hk-opt.com/LiveApp/streams/420058855294412322884038.m3u8",
   "verified": true,
   "last_ok": "2026-07-16T03:24:19+00:00"
  },
  {
   "id": "7f9dda479bb6",
   "name": "ID - DKI Jakarta - Jakarta - JORRS GT LENTENG AGUNG 2",
   "country": "ID",
   "lat": -6.275,
   "lon": 106.847,
   "environment": "traffic",
   "scene": "traffic",
   "type": "hls",
   "src": "https://pub.hk-opt.com/LiveApp/streams/720556408093325199948146.m3u8",
   "verified": true,
   "last_ok": "2026-07-16T03:24:19+00:00"
  },
  {
   "id": "4276e7710fe6",
   "name": "ID - DKI Jakarta - Jakarta - JORRS GT PASAR REBO",
   "country": "ID",
   "lat": -6.272,
   "lon": 106.848,
   "environment": "traffic",
   "scene": "traffic",
   "type": "hls",
   "src": "https://pub.hk-opt.com/LiveApp/streams/786252567929925275184104.m3u8",
   "verified": true,
   "last_ok": "2026-07-16T03:24:19+00:00"
  },
  {
   "id": "0150cc36b8eb",
   "name": "ID - Jawa Barat - Tasikmalaya - Simpang Alun-alun Arah Otista",
   "country": "ID",
   "lat": -7.32684,
   "lon": 108.22484,
   "environment": "traffic",
   "scene": "traffic",
   "type": "hls",
   "src": "https://atcs.tasikmalayakota.go.id/camera/alunalunarahotista.m3u8",
   "verified": true,
   "last_ok": "2026-07-16T03:24:19+00:00"
  },
  {
   "id": "ce7744cb5f4a",
   "name": "ID - Jawa Barat - Tasikmalaya - Simpang Bojong Jengkol Arah Leuwidahu",
   "country": "ID",
   "lat": -7.28783,
   "lon": 108.20053,
   "environment": "traffic",
   "scene": "traffic",
   "type": "hls",
   "src": "https://atcs.tasikmalayakota.go.id/camera/bojongjengkolarahleuwidahu.m3u8",
   "verified": true,
   "last_ok": "2026-07-16T03:24:19+00:00"
  },
  {
   "id": "714e52cda97e",
   "name": "ID - Jawa Barat - Tasikmalaya - Simpang Cimulu",
   "country": "ID",
   "lat": -7.3211,
   "lon": 108.2213,
   "environment": "traffic",
   "scene": "traffic",
   "type": "hls",
   "src": "https://atcs.tasikmalayakota.go.id/camera/cimulu.m3u8",
   "verified": true,
   "last_ok": "2026-07-16T03:24:19+00:00"
  },
  {
   "id": "3dc312c399a5",
   "name": "ID - Jawa Barat - Tasikmalaya - Simpang Dewi Sartika Arah Masjid Agung",
   "country": "ID",
   "lat": -7.32334,
   "lon": 108.22167,
   "environment": "traffic",
   "scene": "traffic",
   "type": "hls",
   "src": "https://atcs.tasikmalayakota.go.id/camera/dewisartikaarahmasjidagung.m3u8",
   "verified": true,
   "last_ok": "2026-07-16T03:24:19+00:00"
  },
  {
   "id": "887842d9f481",
   "name": "ID - Jawa Barat - Tasikmalaya - Simpang Jati",
   "country": "ID",
   "lat": -7.30406,
   "lon": 108.20548,
   "environment": "traffic",
   "scene": "traffic",
   "type": "hls",
   "src": "https://atcs.tasikmalayakota.go.id/camera/jati.m3u8",
   "verified": true,
   "last_ok": "2026-07-16T03:24:19+00:00"
  },
  {
   "id": "c1c0035f536c",
   "name": "ID - Jawa Barat - Tasikmalaya - Simpang Mitra Batik",
   "country": "ID",
   "lat": -7.31574,
   "lon": 108.21583,
   "environment": "traffic",
   "scene": "traffic",
   "type": "hls",
   "src": "https://atcs.tasikmalayakota.go.id/camera/mitrabatik.m3u8",
   "verified": true,
   "last_ok": "2026-07-16T03:24:19+00:00"
  },
  {
   "id": "9a967ed4c855",
   "name": "ID - Jawa Barat - Tasikmalaya - Simpang Nagarawangi",
   "country": "ID",
   "lat": -7.33445,
   "lon": 108.21907,
   "environment": "traffic",
   "scene": "traffic",
   "type": "hls",
   "src": "https://atcs.tasikmalayakota.go.id/camera/nagarawangi.m3u8",
   "verified": true,
   "last_ok": "2026-07-16T03:24:19+00:00"
  },
  {
   "id": "98e93c938b76",
   "name": "ID - Jawa Barat - Tasikmalaya - Simpang Padayungan",
   "country": "ID",
   "lat": -7.34821,
   "lon": 108.2179,
   "environment": "traffic",
   "scene": "traffic",
   "type": "hls",
   "src": "https://atcs.tasikmalayakota.go.id/camera/padayunganarahkawalu.m3u8",
   "verified": true,
   "last_ok": "2026-07-16T03:24:19+00:00"
  },
  {
   "id": "a679aa686b9c",
   "name": "ID - Jawa Barat - Tasikmalaya - Simpang Rancabango Arah Jati",
   "country": "ID",
   "lat": -7.31825,
   "lon": 108.19899,
   "environment": "traffic",
   "scene": "traffic",
   "type": "hls",
   "src": "https://atcs.tasikmalayakota.go.id/camera/rancabangoarahjati.m3u8",
   "verified": true,
   "last_ok": "2026-07-16T03:24:19+00:00"
  },